{
"type": "FeatureCollection",
"name": "Estaciones_Sistema_Metro",
"crs": { "type": "name", "properties": { "name": "urn:ogc:def:crs:OGC:1.3:CRS84" } },
"features": [
{ "type": "Feature", "properties": { "objectid": 1, "linea": "A", "nombre": "Estación Acevedo (Línea A)", "codigo_mpio": "05001", "municipio": "Medellín", "sistema": "Metro", "tipo": "Estación" }, "geometry": { "type": "Point", "coordinates": [ -75.558555707193719, 6.299942590083669, 40.0 ] } },
{ "type": "Feature", "properties": { "objectid": 2, "linea": "A", "nombre": "Estación Tricentenario (Línea A)", "codigo_mpio": "05001", "municipio": "Medellín", "sistema": "Metro", "tipo": "Estación" }, "geometry": { "type": "Point", "coordinates": [ -75.564716728009699, 6.290315341182454, 40.0 ] } },
{ "type": "Feature", "properties": { "objectid": 3, "linea": "A", "nombre": "Estación Caribe (Línea A)", "codigo_mpio": "05001", "municipio": "Medellín", "sistema": "Metro", "tipo": "Estación" }, "geometry": { "type": "Point", "coordinates": [ -75.56940485581444, 6.27832651707121, 40.0 ] } },
{ "type": "Feature", "properties": { "objectid": 4, "linea": "A", "nombre": "Estación Universidad (Línea A)", "codigo_mpio": "05001", "municipio": "Medellín", "sistema": "Metro", "tipo": "Estación" }, "geometry": { "type": "Point", "coordinates": [ -75.565827996118429, 6.269432755149477, 40.0 ] } },
{ "type": "Feature", "properties": { "objectid": 5, "linea": "A", "nombre": "Estación Hospital (Línea A)", "codigo_mpio": "05001", "municipio": "Medellín", "sistema": "Metro", "tipo": "Estación" }, "geometry": { "type": "Point", "coordinates": [ -75.563334802895739, 6.263919524947909, 40.0 ] } },
{ "type": "Feature", "properties": { "objectid": 6, "linea": "A", "nombre": "Estación Prado (Línea A)", "codigo_mpio": "05001", "municipio": "Medellín", "sistema": "Metro", "tipo": "Estación" }, "geometry": { "type": "Point", "coordinates": [ -75.566172155076828, 6.256850167274485, 40.0 ] } },
{ "type": "Feature", "properties": { "objectid": 7, "linea": "A", "nombre": "Estación Parque Berrío (Línea A)", "codigo_mpio": "05001", "municipio": "Medellín", "sistema": "Metro", "tipo": "Estación" }, "geometry": { "type": "Point", "coordinates": [ -75.568235931135831, 6.250501603477187, 40.0 ] } },
{ "type": "Feature", "properties": { "objectid": 8, "linea": "A", "nombre": "Estación San Antonio (Línea A)", "codigo_mpio": "05001", "municipio": "Medellín", "sistema": "Metro", "tipo": "Estación" }, "geometry": { "type": "Point", "coordinates": [ -75.569703407305866, 6.247194543513417, 40.0 ] } },
{ "type": "Feature", "properties": { "objectid": 9, "linea": "B", "nombre": "Estación Cisneros (Línea B)", "codigo_mpio": "05001", "municipio": "Medellín", "sistema": "Metro", "tipo": "Estación" }, "geometry": { "type": "Point", "coordinates": [ -75.575151977863271, 6.249053571729463, 45.0 ] } },
{ "type": "Feature", "properties": { "objectid": 10, "linea": "A", "nombre": "Estación Alpujarra (Línea A)", "codigo_mpio": "05001", "municipio": "Medellín", "sistema": "Metro", "tipo": "Estación" }, "geometry": { "type": "Point", "coordinates": [ -75.571425288160995, 6.242917110552672, 40.0 ] } },
{ "type": "Feature", "properties": { "objectid": 11, "linea": "A", "nombre": "Estación Exposiciones (Línea A)", "codigo_mpio": "05001", "municipio": "Medellín", "sistema": "Metro", "tipo": "Estación" }, "geometry": { "type": "Point", "coordinates": [ -75.573163653101588, 6.238419853233182, 40.0 ] } },
{ "type": "Feature", "properties": { "objectid": 12, "linea": "A", "nombre": "Estación Industriales (Línea A)", "codigo_mpio": "05001", "municipio": "Medellín", "sistema": "Metro", "tipo": "Estación" }, "geometry": { "type": "Point", "coordinates": [ -75.575618520601026, 6.230090590691362, 40.0 ] } },
{ "type": "Feature", "properties": { "objectid": 13, "linea": "A", "nombre": "Estación Poblado (Línea A)", "codigo_mpio": "05001", "municipio": "Medellín", "sistema": "Metro", "tipo": "Estación" }, "geometry": { "type": "Point", "coordinates": [ -75.578095661827902, 6.212178340361099, 40.0 ] } },
{ "type": "Feature", "properties": { "objectid": 14, "linea": "A", "nombre": "Estación Aguacatala (Línea A)", "codigo_mpio": "05001", "municipio": "Medellín", "sistema": "Metro", "tipo": "Estación" }, "geometry": { "type": "Point", "coordinates": [ -75.58180954424914, 6.193919630681701, 40.0 ] } },
{ "type": "Feature", "properties": { "objectid": 15, "linea": "B", "nombre": "Estación Suramericana (Línea B)", "codigo_mpio": "05001", "municipio": "Medellín", "sistema": "Metro", "tipo": "Estación" }, "geometry": { "type": "Point", "coordinates": [ -75.582941711662983, 6.252984046166907, 45.0 ] } },
{ "type": "Feature", "properties": { "objectid": 16, "linea": "B", "nombre": "Estación Estadio (Línea B)", "codigo_mpio": "05001", "municipio": "Medellín", "sistema": "Metro", "tipo": "Estación" }, "geometry": { "type": "Point", "coordinates": [ -75.588256373954223, 6.25333562923324, 45.0 ] } },
{ "type": "Feature", "properties": { "objectid": 17, "linea": "B", "nombre": "Estación Floresta (Línea B)", "codigo_mpio": "05001", "municipio": "Medellín", "sistema": "Metro", "tipo": "Estación" }, "geometry": { "type": "Point", "coordinates": [ -75.597743699960418, 6.258709042400129, 45.0 ] } },
{ "type": "Feature", "properties": { "objectid": 18, "linea": "B", "nombre": "Estación Santa Lucia (Línea B)", "codigo_mpio": "05001", "municipio": "Medellín", "sistema": "Metro", "tipo": "Estación" }, "geometry": { "type": "Point", "coordinates": [ -75.603746248977103, 6.258088209915199, 45.0 ] } },
{ "type": "Feature", "properties": { "objectid": 19, "linea": "B", "nombre": "Estación San Javier (Línea B)", "codigo_mpio": "05001", "municipio": "Medellín", "sistema": "Metro", "tipo": "Estación" }, "geometry": { "type": "Point", "coordinates": [ -75.613664203974338, 6.25678093038968, 45.0 ] } },
{ "type": "Feature", "properties": { "objectid": 20, "linea": "A", "nombre": "Estación Madera (Línea A)", "codigo_mpio": "05088", "municipio": "Bello", "sistema": "Metro", "tipo": "Estación" }, "geometry": { "type": "Point", "coordinates": [ -75.555324490472941, 6.315876874781749, 40.0 ] } },
{ "type": "Feature", "properties": { "objectid": 21, "linea": "A", "nombre": "Estación Bello (Línea A)", "codigo_mpio": "05088", "municipio": "Bello", "sistema": "Metro", "tipo": "Estación" }, "geometry": { "type": "Point", "coordinates": [ -75.553635081918713, 6.330097699759588, 40.0 ] } },
{ "type": "Feature", "properties": { "objectid": 22, "linea": "A", "nombre": "Estación Niquía (Línea A)", "codigo_mpio": "05088", "municipio": "Bello", "sistema": "Metro", "tipo": "Estación" }, "geometry": { "type": "Point", "coordinates": [ -75.544287399023403, 6.33782749669792, 40.0 ] } },
{ "type": "Feature", "properties": { "objectid": 23, "linea": "A", "nombre": "Estación Ayurá (Línea A)", "codigo_mpio": "05266", "municipio": "Envigado", "sistema": "Metro", "tipo": "Estación" }, "geometry": { "type": "Point", "coordinates": [ -75.586063862128483, 6.18616161338868, 40.0 ] } },
{ "type": "Feature", "properties": { "objectid": 24, "linea": "A", "nombre": "Estación Envigado (Línea A)", "codigo_mpio": "05360", "municipio": "Itagüí", "sistema": "Metro", "tipo": "Estación" }, "geometry": { "type": "Point", "coordinates": [ -75.597065470124292, 6.174686147274544, 40.0 ] } },
{ "type": "Feature", "properties": { "objectid": 25, "linea": "A", "nombre": "Estación Itaguí (Línea A)", "codigo_mpio": "05360", "municipio": "Itagüí", "sistema": "Metro", "tipo": "Estación" }, "geometry": { "type": "Point", "coordinates": [ -75.60686324850279, 6.16289398638237, 40.0 ] } },
{ "type": "Feature", "properties": { "objectid": 26, "linea": "A", "nombre": "Estación Sabaneta (Línea A)", "codigo_mpio": "05631", "municipio": "Sabaneta", "sistema": "Metro", "tipo": "Estación" }, "geometry": { "type": "Point", "coordinates": [ -75.616242382314482, 6.157689019325007, 40.0 ] } },
{ "type": "Feature", "properties": { "objectid": 27, "linea": "A", "nombre": "Estación La Estrella (Línea A)", "codigo_mpio": "05631", "municipio": "Sabaneta", "sistema": "Metro", "tipo": "Estación" }, "geometry": { "type": "Point", "coordinates": [ -75.626363219123675, 6.152784263614692, 40.0 ] } },
{ "type": "Feature", "properties": { "objectid": 28, "linea": "B", "nombre": "Estación San Antonio (Línea B)", "codigo_mpio": "05001", "municipio": "Medellín", "sistema": "Metro", "tipo": "Estación" }, "geometry": { "type": "Point", "coordinates": [ -75.569727900770403, 6.247202341021603, 45.0 ] } },
{ "type": "Feature", "properties": { "objectid": 29, "linea": "L", "nombre": "Estación Arví (Línea L)", "codigo_mpio": "05001", "municipio": "Medellín", "sistema": "Cable", "tipo": "Estación" }, "geometry": { "type": "Point", "coordinates": [ -75.502971731234922, 6.28154575110938, 50.0 ] } },
{ "type": "Feature", "properties": { "objectid": 30, "linea": "K", "nombre": "Estación Santo Domingo (Línea K)", "codigo_mpio": "05001", "municipio": "Medellín", "sistema": "Cable", "tipo": "Estación" }, "geometry": { "type": "Point", "coordinates": [ -75.541727282210374, 6.293159377814147, 50.0 ] } },
{ "type": "Feature", "properties": { "objectid": 31, "linea": "K", "nombre": "Estación Popular (Línea K)", "codigo_mpio": "05001", "municipio": "Medellín", "sistema": "Cable", "tipo": "Estación" }, "geometry": { "type": "Point", "coordinates": [ -75.548141364730085, 6.295122596123949, 50.0 ] } },
{ "type": "Feature", "properties": { "objectid": 32, "linea": "K", "nombre": "Estación Andalucía (Línea K)", "codigo_mpio": "05001", "municipio": "Medellín", "sistema": "Cable", "tipo": "Estación" }, "geometry": { "type": "Point", "coordinates": [ -75.551896935268715, 6.296272054608032, 50.0 ] } },
{ "type": "Feature", "properties": { "objectid": 33, "linea": "J", "nombre": "Estación Juan XXIII (Línea J)", "codigo_mpio": "05001", "municipio": "Medellín", "sistema": "Cable", "tipo": "Estación" }, "geometry": { "type": "Point", "coordinates": [ -75.613702571020113, 6.265676530490179, 50.0 ] } },
{ "type": "Feature", "properties": { "objectid": 34, "linea": "J", "nombre": "Estación Vallejuelos (Línea J)", "codigo_mpio": "05001", "municipio": "Medellín", "sistema": "Cable", "tipo": "Estación" }, "geometry": { "type": "Point", "coordinates": [ -75.614017156541038, 6.275360768553472, 50.0 ] } },
{ "type": "Feature", "properties": { "objectid": 35, "linea": "J", "nombre": "Estación La Aurora (Línea J)", "codigo_mpio": "05001", "municipio": "Medellín", "sistema": "Cable", "tipo": "Estación" }, "geometry": { "type": "Point", "coordinates": [ -75.614203375502811, 6.281093175171669, 50.0 ] } },
{ "type": "Feature", "properties": { "objectid": 36, "linea": "M", "nombre": "Estación 13 de Noviembre (Línea M)", "codigo_mpio": "05001", "municipio": "Medellín", "sistema": "Cable", "tipo": "Estación" }, "geometry": { "type": "Point", "coordinates": [ -75.541394504008309, 6.24761517926628, 50.0 ] } },
{ "type": "Feature", "properties": { "objectid": 37, "linea": "H", "nombre": "Estación Villa Sierra (Línea H)", "codigo_mpio": "05001", "municipio": "Medellín", "sistema": "Cable", "tipo": "Estación" }, "geometry": { "type": "Point", "coordinates": [ -75.52867947638903, 6.234874543639074, 50.0 ] } },
{ "type": "Feature", "properties": { "objectid": 38, "linea": "M", "nombre": "Estación El Pinal (Línea M)", "codigo_mpio": "05001", "municipio": "Medellín", "sistema": "Cable", "tipo": "Estación" }, "geometry": { "type": "Point", "coordinates": [ -75.544475954503241, 6.245263089476156, 50.0 ] } },
{ "type": "Feature", "properties": { "objectid": 39, "linea": "H", "nombre": "Estación Las Torres (Línea H)", "codigo_mpio": "05001", "municipio": "Medellín", "sistema": "Cable", "tipo": "Estación" }, "geometry": { "type": "Point", "coordinates": [ -75.536372116679587, 6.236645414095787, 50.0 ] } },
{ "type": "Feature", "properties": { "objectid": 40, "linea": "L", "nombre": "Estación Santo Domingo (Línea L)", "codigo_mpio": "05001", "municipio": "Medellín", "sistema": "Cable", "tipo": "Estación" }, "geometry": { "type": "Point", "coordinates": [ -75.541847630407304, 6.292722549395813, 50.0 ] } },
{ "type": "Feature", "properties": { "objectid": 41, "linea": "K", "nombre": "Estación Acevedo (Línea K)", "codigo_mpio": "05001", "municipio": "Medellín", "sistema": "Cable", "tipo": "Estación" }, "geometry": { "type": "Point", "coordinates": [ -75.558308021008642, 6.300272175475473, 50.0 ] } },
{ "type": "Feature", "properties": { "objectid": 42, "linea": "M", "nombre": "Estación Miraflores (Línea M)", "codigo_mpio": "05001", "municipio": "Medellín", "sistema": "Cable", "tipo": "Estación" }, "geometry": { "type": "Point", "coordinates": [ -75.549111345810942, 6.241724790611944, 50.0 ] } },
{ "type": "Feature", "properties": { "objectid": 43, "linea": "H", "nombre": "Estación Oriente (Línea H)", "codigo_mpio": "05001", "municipio": "Medellín", "sistema": "Cable", "tipo": "Estación" }, "geometry": { "type": "Point", "coordinates": [ -75.539937136580164, 6.233362012535602, 50.0 ] } },
{ "type": "Feature", "properties": { "objectid": 44, "linea": "J", "nombre": "Estación San Javier (Línea J)", "codigo_mpio": "05001", "municipio": "Medellín", "sistema": "Cable", "tipo": "Estación" }, "geometry": { "type": "Point", "coordinates": [ -75.61341164173389, 6.256720170408026, 50.0 ] } },
{ "type": "Feature", "properties": { "objectid": 45, "linea": "P", "nombre": "Estación El Progreso (Línea P)", "codigo_mpio": "05001", "municipio": "Medellín", "sistema": "Cable", "tipo": "Estación" }, "geometry": { "type": "Point", "coordinates": [ -75.58233358724992, 6.305999019716445, 50.0 ] } },
{ "type": "Feature", "properties": { "objectid": 46, "linea": "P", "nombre": "Estación Doce de Octubre (Línea P)", "codigo_mpio": "05001", "municipio": "Medellín", "sistema": "Cable", "tipo": "Estación" }, "geometry": { "type": "Point", "coordinates": [ -75.575947214163477, 6.304248229993065, 50.0 ] } },
{ "type": "Feature", "properties": { "objectid": 47, "linea": "P", "nombre": "Estación Sena-Pedregal (Línea P)", "codigo_mpio": "05001", "municipio": "Medellín", "sistema": "Cable", "tipo": "Estación" }, "geometry": { "type": "Point", "coordinates": [ -75.567318898554461, 6.301882672148199, 50.0 ] } },
{ "type": "Feature", "properties": { "objectid": 48, "linea": "P", "nombre": "Estación Acevedo (Línea P)", "codigo_mpio": "05001", "municipio": "Medellín", "sistema": "Cable", "tipo": "Estación" }, "geometry": { "type": "Point", "coordinates": [ -75.558807973888435, 6.299549127950522, 50.0 ] } },
{ "type": "Feature", "properties": { "objectid": 49, "linea": "T", "nombre": "Estación Alejandro Echavarría (Línea T)", "codigo_mpio": "05001", "municipio": "Medellín", "sistema": "Tranvía", "tipo": "Estación" }, "geometry": { "type": "Point", "coordinates": [ -75.541739133683919, 6.235509448773005, 35.0 ] } },
{ "type": "Feature", "properties": { "objectid": 50, "linea": "T", "nombre": "Estación Bicentenario (Línea T)", "codigo_mpio": "05001", "municipio": "Medellín", "sistema": "Tranvía", "tipo": "Estación" }, "geometry": { "type": "Point", "coordinates": [ -75.558762662865519, 6.243951020066469, 35.0 ] } },
{ "type": "Feature", "properties": { "objectid": 51, "linea": "T", "nombre": "Estación Loyola (Línea T)", "codigo_mpio": "05001", "municipio": "Medellín", "sistema": "Tranvía", "tipo": "Estación" }, "geometry": { "type": "Point", "coordinates": [ -75.545175647786465, 6.239028041923444, 35.0 ] } },
{ "type": "Feature", "properties": { "objectid": 52, "linea": "T", "nombre": "Estación Oriente (Línea T)", "codigo_mpio": "05001", "municipio": "Medellín", "sistema": "Tranvía", "tipo": "Estación" }, "geometry": { "type": "Point", "coordinates": [ -75.540139738117773, 6.233150211503954, 35.0 ] } },
{ "type": "Feature", "properties": { "objectid": 53, "linea": "T", "nombre": "Estación Pabellón del Agua (Línea T)", "codigo_mpio": "05001", "municipio": "Medellín", "sistema": "Tranvía", "tipo": "Estación" }, "geometry": { "type": "Point", "coordinates": [ -75.561993284901575, 6.245588624936849, 35.0 ] } },
{ "type": "Feature", "properties": { "objectid": 54, "linea": "T", "nombre": "Estación San José (Línea T)", "codigo_mpio": "05001", "municipio": "Medellín", "sistema": "Tranvía", "tipo": "Estación" }, "geometry": { "type": "Point", "coordinates": [ -75.565386212746532, 6.247329169279925, 35.0 ] } },
{ "type": "Feature", "properties": { "objectid": 55, "linea": "T", "nombre": "Estación Buenos Aires (Línea T)", "codigo_mpio": "05001", "municipio": "Medellín", "sistema": "Tranvía", "tipo": "Estación" }, "geometry": { "type": "Point", "coordinates": [ -75.553899999587571, 6.241399226852787, 35.0 ] } },
{ "type": "Feature", "properties": { "objectid": 56, "linea": "T", "nombre": "Estación Miraflores (Línea T)", "codigo_mpio": "05001", "municipio": "Medellín", "sistema": "Tranvía", "tipo": "Estación" }, "geometry": { "type": "Point", "coordinates": [ -75.549003390771674, 6.241387874262252, 35.0 ] } },
{ "type": "Feature", "properties": { "objectid": 57, "linea": "T", "nombre": "Estación San Antonio (Línea T)", "codigo_mpio": "05001", "municipio": "Medellín", "sistema": "Tranvía", "tipo": "Estación" }, "geometry": { "type": "Point", "coordinates": [ -75.569157150764738, 6.246997810878741, 35.0 ] } },
{ "type": "Feature", "properties": { "objectid": 58, "linea": "1", "nombre": "Estación Universidad de Medellín (Línea 1)", "codigo_mpio": "05001", "municipio": "Medellín", "sistema": "Metroplus", "tipo": "Estación" }, "geometry": { "type": "Point", "coordinates": [ -75.609224896926847, 6.230666881831705, 31.0 ] } },
{ "type": "Feature", "properties": { "objectid": 59, "linea": "1", "nombre": "Parada Los Alpes (Línea 1)", "codigo_mpio": "05001", "municipio": "Medellín", "sistema": "Metroplus", "tipo": "Parada" }, "geometry": { "type": "Point", "coordinates": [ -75.605168733924472, 6.231092741553155, 31.0 ] } },
{ "type": "Feature", "properties": { "objectid": 60, "linea": "1", "nombre": "Parada La Palma (Línea 1)", "codigo_mpio": "05001", "municipio": "Medellín", "sistema": "Metroplus", "tipo": "Parada" }, "geometry": { "type": "Point", "coordinates": [ -75.601027875960469, 6.231177751464328, 31.0 ] } },
{ "type": "Feature", "properties": { "objectid": 61, "linea": "1", "nombre": "Parada Parque Belén (Línea 1)", "codigo_mpio": "05001", "municipio": "Medellín", "sistema": "Metroplus", "tipo": "Parada" }, "geometry": { "type": "Point", "coordinates": [ -75.596750006949321, 6.231396026705125, 31.0 ] } },
{ "type": "Feature", "properties": { "objectid": 62, "linea": "1", "nombre": "Parada Rosales (Línea 1)", "codigo_mpio": "05001", "municipio": "Medellín", "sistema": "Metroplus", "tipo": "Parada" }, "geometry": { "type": "Point", "coordinates": [ -75.590970014645961, 6.231596188986988, 31.0 ] } },
{ "type": "Feature", "properties": { "objectid": 63, "linea": "1", "nombre": "Parada Fátima (Línea 1)", "codigo_mpio": "05001", "municipio": "Medellín", "sistema": "Metroplus", "tipo": "Parada" }, "geometry": { "type": "Point", "coordinates": [ -75.586564113248954, 6.23174271629464, 31.0 ] } },
{ "type": "Feature", "properties": { "objectid": 64, "linea": "1", "nombre": "Parada Nutibara (Línea 1)", "codigo_mpio": "05001", "municipio": "Medellín", "sistema": "Metroplus", "tipo": "Parada" }, "geometry": { "type": "Point", "coordinates": [ -75.582058160190542, 6.231865202922839, 31.0 ] } },
{ "type": "Feature", "properties": { "objectid": 65, "linea": "1", "nombre": "Parada Plaza Mayor (Línea 1)", "codigo_mpio": "05001", "municipio": "Medellín", "sistema": "Metroplus", "tipo": "Parada" }, "geometry": { "type": "Point", "coordinates": [ -75.575400728551955, 6.243661856727864, 31.0 ] } },
{ "type": "Feature", "properties": { "objectid": 66, "linea": "1", "nombre": "Parada Cisneros (Línea 1)", "codigo_mpio": "05001", "municipio": "Medellín", "sistema": "Metroplus", "tipo": "Parada" }, "geometry": { "type": "Point", "coordinates": [ -75.575035618186192, 6.250853156065245, 31.0 ] } },
{ "type": "Feature", "properties": { "objectid": 67, "linea": "1", "nombre": "Parada Minorista (Línea 1)", "codigo_mpio": "05001", "municipio": "Medellín", "sistema": "Metroplus", "tipo": "Parada" }, "geometry": { "type": "Point", "coordinates": [ -75.573145228655122, 6.256091368521094, 31.0 ] } },
{ "type": "Feature", "properties": { "objectid": 68, "linea": "1", "nombre": "Parada Chagualo (Línea 1)", "codigo_mpio": "05001", "municipio": "Medellín", "sistema": "Metroplus", "tipo": "Parada" }, "geometry": { "type": "Point", "coordinates": [ -75.56914261422682, 6.260710635932927, 31.0 ] } },
{ "type": "Feature", "properties": { "objectid": 69, "linea": "1", "nombre": "Parada Ruta N (Línea 1)", "codigo_mpio": "05001", "municipio": "Medellín", "sistema": "Metroplus", "tipo": "Parada" }, "geometry": { "type": "Point", "coordinates": [ -75.567580063062053, 6.263931067248123, 31.0 ] } },
{ "type": "Feature", "properties": { "objectid": 70, "linea": "1", "nombre": "Parada San Pedro (Línea 1)", "codigo_mpio": "05001", "municipio": "Medellín", "sistema": "Metroplus", "tipo": "Parada" }, "geometry": { "type": "Point", "coordinates": [ -75.560169956403087, 6.263486368828098, 31.0 ] } },
{ "type": "Feature", "properties": { "objectid": 71, "linea": "1", "nombre": "Parada Palos Verdes (Línea 1)", "codigo_mpio": "05001", "municipio": "Medellín", "sistema": "Metroplus", "tipo": "Parada" }, "geometry": { "type": "Point", "coordinates": [ -75.555923134066475, 6.262113084845928, 31.0 ] } },
{ "type": "Feature", "properties": { "objectid": 72, "linea": "1", "nombre": "Parada Gardel (Línea 1)", "codigo_mpio": "05001", "municipio": "Medellín", "sistema": "Metroplus", "tipo": "Parada" }, "geometry": { "type": "Point", "coordinates": [ -75.555044130764344, 6.267667781106575, 31.0 ] } },
{ "type": "Feature", "properties": { "objectid": 73, "linea": "1", "nombre": "Parada Manrique (Línea 1)", "codigo_mpio": "05001", "municipio": "Medellín", "sistema": "Metroplus", "tipo": "Parada" }, "geometry": { "type": "Point", "coordinates": [ -75.5540786933622, 6.27325743471826, 31.0 ] } },
{ "type": "Feature", "properties": { "objectid": 74, "linea": "1", "nombre": "Parada Las Esmeraldas (Línea 1)", "codigo_mpio": "05001", "municipio": "Medellín", "sistema": "Metroplus", "tipo": "Parada" }, "geometry": { "type": "Point", "coordinates": [ -75.553168021751347, 6.278393450022571, 31.0 ] } },
{ "type": "Feature", "properties": { "objectid": 75, "linea": "1", "nombre": "Parada Berlin (Línea 1)", "codigo_mpio": "05001", "municipio": "Medellín", "sistema": "Metroplus", "tipo": "Parada" }, "geometry": { "type": "Point", "coordinates": [ -75.552937991953186, 6.282931999987182, 31.0 ] } },
{ "type": "Feature", "properties": { "objectid": 76, "linea": "1", "nombre": "Parada Parque Aranjuez (Línea 1)", "codigo_mpio": "05001", "municipio": "Medellín", "sistema": "Metroplus", "tipo": "Parada" }, "geometry": { "type": "Point", "coordinates": [ -75.556658988133165, 6.285200131482648, 31.0 ] } },
{ "type": "Feature", "properties": { "objectid": 77, "linea": "2", "nombre": "Paradero Barrio Colombia (Línea 2)", "codigo_mpio": "05001", "municipio": "Medellín", "sistema": "Metroplus", "tipo": "Paradero" }, "geometry": { "type": "Point", "coordinates": [ -75.570985958986469, 6.228624389572427, 32.0 ] } },
{ "type": "Feature", "properties": { "objectid": 78, "linea": "2", "nombre": "Paradero Barrio Colombia (Línea 2)", "codigo_mpio": "05001", "municipio": "Medellín", "sistema": "Metroplus", "tipo": "Paradero" }, "geometry": { "type": "Point", "coordinates": [ -75.569828915425788, 6.229057630799733, 32.0 ] } },
{ "type": "Feature", "properties": { "objectid": 79, "linea": "2", "nombre": "Parada Perpetuo Socorro (Línea 2)", "codigo_mpio": "05001", "municipio": "Medellín", "sistema": "Metroplus", "tipo": "Parada" }, "geometry": { "type": "Point", "coordinates": [ -75.570042252729351, 6.234088772024079, 32.0 ] } },
{ "type": "Feature", "properties": { "objectid": 80, "linea": "2", "nombre": "Parada Barrio Colón (Línea 2)", "codigo_mpio": "05001", "municipio": "Medellín", "sistema": "Metroplus", "tipo": "Parada" }, "geometry": { "type": "Point", "coordinates": [ -75.569781751178425, 6.240609553713155, 32.0 ] } },
{ "type": "Feature", "properties": { "objectid": 81, "linea": "2", "nombre": "Parada San José (Línea 2)", "codigo_mpio": "05001", "municipio": "Medellín", "sistema": "Metroplus", "tipo": "Parada" }, "geometry": { "type": "Point", "coordinates": [ -75.566091793588129, 6.247080223207306, 32.0 ] } },
{ "type": "Feature", "properties": { "objectid": 82, "linea": "2", "nombre": "Parada La Playa (Línea 2)", "codigo_mpio": "05001", "municipio": "Medellín", "sistema": "Metroplus", "tipo": "Parada" }, "geometry": { "type": "Point", "coordinates": [ -75.564394448418369, 6.249590913590873, 32.0 ] } },
{ "type": "Feature", "properties": { "objectid": 83, "linea": "2", "nombre": "Parada Catedral Metropolitana (Línea 2)", "codigo_mpio": "05001", "municipio": "Medellín", "sistema": "Metroplus", "tipo": "Parada" }, "geometry": { "type": "Point", "coordinates": [ -75.562473761407688, 6.252964782105147, 32.0 ] } },
{ "type": "Feature", "properties": { "objectid": 84, "linea": "2", "nombre": "Paradero Prado (Línea 2)", "codigo_mpio": "05001", "municipio": "Medellín", "sistema": "Metroplus", "tipo": "Paradero" }, "geometry": { "type": "Point", "coordinates": [ -75.559588134661567, 6.258797249092729, 32.0 ] } },
{ "type": "Feature", "properties": { "objectid": 85, "linea": "2", "nombre": "Paradero Prado (Línea 2)", "codigo_mpio": "05001", "municipio": "Medellín", "sistema": "Metroplus", "tipo": "Paradero" }, "geometry": { "type": "Point", "coordinates": [ -75.560372921758386, 6.25897034151252, 32.0 ] } },
{ "type": "Feature", "properties": { "objectid": 86, "linea": "2", "nombre": "Paradero Palos Verdes (Línea 2)", "codigo_mpio": "05001", "municipio": "Medellín", "sistema": "Metroplus", "tipo": "Paradero" }, "geometry": { "type": "Point", "coordinates": [ -75.556402590086449, 6.263255959232634, 32.0 ] } },
{ "type": "Feature", "properties": { "objectid": 87, "linea": "1", "nombre": "Parada Berlin (Línea 1)", "codigo_mpio": "05001", "municipio": "Medellín", "sistema": "Metroplus", "tipo": "Parada" }, "geometry": { "type": "Point", "coordinates": [ -75.552870231132957, 6.282925940634459, 31.0 ] } },
{ "type": "Feature", "properties": { "objectid": 88, "linea": "1", "nombre": "Parada Las Esmeraldas (Línea 1)", "codigo_mpio": "05001", "municipio": "Medellín", "sistema": "Metroplus", "tipo": "Parada" }, "geometry": { "type": "Point", "coordinates": [ -75.553125975206157, 6.278386814678823, 31.0 ] } },
{ "type": "Feature", "properties": { "objectid": 89, "linea": "1", "nombre": "Parada Manrique (Línea 1)", "codigo_mpio": "05001", "municipio": "Medellín", "sistema": "Metroplus", "tipo": "Parada" }, "geometry": { "type": "Point", "coordinates": [ -75.554023550278472, 6.273248297301723, 31.0 ] } },
{ "type": "Feature", "properties": { "objectid": 90, "linea": "1", "nombre": "Parada Gardel (Línea 1)", "codigo_mpio": "05001", "municipio": "Medellín", "sistema": "Metroplus", "tipo": "Parada" }, "geometry": { "type": "Point", "coordinates": [ -75.554990729513975, 6.267663264586667, 31.0 ] } },
{ "type": "Feature", "properties": { "objectid": 91, "linea": "1", "nombre": "Parada Palos Verdes (Línea 1)", "codigo_mpio": "05001", "municipio": "Medellín", "sistema": "Metroplus", "tipo": "Parada" }, "geometry": { "type": "Point", "coordinates": [ -75.555817217304593, 6.262072712549046, 31.0 ] } },
{ "type": "Feature", "properties": { "objectid": 92, "linea": "1", "nombre": "Parada San Pedro (Línea 1)", "codigo_mpio": "05001", "municipio": "Medellín", "sistema": "Metroplus", "tipo": "Parada" }, "geometry": { "type": "Point", "coordinates": [ -75.560186464743055, 6.263388724413037, 31.0 ] } },
{ "type": "Feature", "properties": { "objectid": 93, "linea": "1", "nombre": "Estación Hospital (Línea 1)", "codigo_mpio": "05001", "municipio": "Medellín", "sistema": "Metroplus", "tipo": "Estación" }, "geometry": { "type": "Point", "coordinates": [ -75.56324457341367, 6.263996364373445, 31.0 ] } },
{ "type": "Feature", "properties": { "objectid": 94, "linea": "1", "nombre": "Estación Hospital (Línea 1)", "codigo_mpio": "05001", "municipio": "Medellín", "sistema": "Metroplus", "tipo": "Estación" }, "geometry": { "type": "Point", "coordinates": [ -75.56330309685778, 6.263850649753009, 31.0 ] } },
{ "type": "Feature", "properties": { "objectid": 95, "linea": "1", "nombre": "Parada Ruta N (Línea 1)", "codigo_mpio": "05001", "municipio": "Medellín", "sistema": "Metroplus", "tipo": "Parada" }, "geometry": { "type": "Point", "coordinates": [ -75.567677928224057, 6.263946731415339, 31.0 ] } },
{ "type": "Feature", "properties": { "objectid": 96, "linea": "1", "nombre": "Parada Chagualo (Línea 1)", "codigo_mpio": "05001", "municipio": "Medellín", "sistema": "Metroplus", "tipo": "Parada" }, "geometry": { "type": "Point", "coordinates": [ -75.569201877882733, 6.260740671457399, 31.0 ] } },
{ "type": "Feature", "properties": { "objectid": 97, "linea": "1", "nombre": "Parada Minorista (Línea 1)", "codigo_mpio": "05001", "municipio": "Medellín", "sistema": "Metroplus", "tipo": "Parada" }, "geometry": { "type": "Point", "coordinates": [ -75.5732230146739, 6.256160097399868, 31.0 ] } },
{ "type": "Feature", "properties": { "objectid": 98, "linea": "1", "nombre": "Parada Cisneros (Línea 1)", "codigo_mpio": "05001", "municipio": "Medellín", "sistema": "Metroplus", "tipo": "Parada" }, "geometry": { "type": "Point", "coordinates": [ -75.575130587179714, 6.250858231732531, 31.0 ] } },
{ "type": "Feature", "properties": { "objectid": 99, "linea": "1", "nombre": "Parada Plaza Mayor (Línea 1)", "codigo_mpio": "05001", "municipio": "Medellín", "sistema": "Metroplus", "tipo": "Parada" }, "geometry": { "type": "Point", "coordinates": [ -75.575304334830392, 6.243659117937304, 31.0 ] } },
{ "type": "Feature", "properties": { "objectid": 100, "linea": "1", "nombre": "Estación Industriales (Línea 1)", "codigo_mpio": "05001", "municipio": "Medellín", "sistema": "Metroplus", "tipo": "Estación" }, "geometry": { "type": "Point", "coordinates": [ -75.576758387475138, 6.230480886787584, 31.0 ] } },
{ "type": "Feature", "properties": { "objectid": 101, "linea": "1", "nombre": "Parada Nutibara (Línea 1)", "codigo_mpio": "05001", "municipio": "Medellín", "sistema": "Metroplus", "tipo": "Parada" }, "geometry": { "type": "Point", "coordinates": [ -75.582055274801874, 6.231736793871373, 31.0 ] } },
{ "type": "Feature", "properties": { "objectid": 102, "linea": "1", "nombre": "Parada Fátima (Línea 1)", "codigo_mpio": "05001", "municipio": "Medellín", "sistema": "Metroplus", "tipo": "Parada" }, "geometry": { "type": "Point", "coordinates": [ -75.586562004902987, 6.231614213447395, 31.0 ] } },
{ "type": "Feature", "properties": { "objectid": 103, "linea": "1", "nombre": "Parada Rosales (Línea 1)", "codigo_mpio": "05001", "municipio": "Medellín", "sistema": "Metroplus", "tipo": "Parada" }, "geometry": { "type": "Point", "coordinates": [ -75.590968226998555, 6.231539564279672, 31.0 ] } },
{ "type": "Feature", "properties": { "objectid": 104, "linea": "1", "nombre": "Parada Parque Belén (Línea 1)", "codigo_mpio": "05001", "municipio": "Medellín", "sistema": "Metroplus", "tipo": "Parada" }, "geometry": { "type": "Point", "coordinates": [ -75.596747317393366, 6.231330312049663, 31.0 ] } },
{ "type": "Feature", "properties": { "objectid": 105, "linea": "1", "nombre": "Parada La Palma (Línea 1)", "codigo_mpio": "05001", "municipio": "Medellín", "sistema": "Metroplus", "tipo": "Parada" }, "geometry": { "type": "Point", "coordinates": [ -75.601024052730622, 6.231109713174201, 31.0 ] } },
{ "type": "Feature", "properties": { "objectid": 106, "linea": "1", "nombre": "Parada Los Alpes (Línea 1)", "codigo_mpio": "05001", "municipio": "Medellín", "sistema": "Metroplus", "tipo": "Parada" }, "geometry": { "type": "Point", "coordinates": [ -75.605166379440107, 6.231023115483211, 31.0 ] } },
{ "type": "Feature", "properties": { "objectid": 107, "linea": "2", "nombre": "Parada Perpetuo Socorro (Línea 2)", "codigo_mpio": "05001", "municipio": "Medellín", "sistema": "Metroplus", "tipo": "Parada" }, "geometry": { "type": "Point", "coordinates": [ -75.57018556006831, 6.2340834390094, 32.0 ] } },
{ "type": "Feature", "properties": { "objectid": 108, "linea": "2", "nombre": "Parada Barrio Colón (Línea 2)", "codigo_mpio": "05001", "municipio": "Medellín", "sistema": "Metroplus", "tipo": "Parada" }, "geometry": { "type": "Point", "coordinates": [ -75.569902214359715, 6.240648197941323, 32.0 ] } },
{ "type": "Feature", "properties": { "objectid": 109, "linea": "2", "nombre": "Parada San José (Línea 2)", "codigo_mpio": "05001", "municipio": "Medellín", "sistema": "Metroplus", "tipo": "Parada" }, "geometry": { "type": "Point", "coordinates": [ -75.56621645280012, 6.247160419144409, 32.0 ] } },
{ "type": "Feature", "properties": { "objectid": 110, "linea": "2", "nombre": "Parada La Playa (Línea 2)", "codigo_mpio": "05001", "municipio": "Medellín", "sistema": "Metroplus", "tipo": "Parada" }, "geometry": { "type": "Point", "coordinates": [ -75.564549833606307, 6.249663205407622, 32.0 ] } },
{ "type": "Feature", "properties": { "objectid": 111, "linea": "2", "nombre": "Parada Catedral Metropolitana (Línea 2)", "codigo_mpio": "05001", "municipio": "Medellín", "sistema": "Metroplus", "tipo": "Parada" }, "geometry": { "type": "Point", "coordinates": [ -75.562598447569144, 6.253038175381581, 32.0 ] } },
{ "type": "Feature", "properties": { "objectid": 112, "linea": "2", "nombre": "Parada Industriales (Línea 2)", "codigo_mpio": "05001", "municipio": "Medellín", "sistema": "Metroplus", "tipo": "Parada" }, "geometry": { "type": "Point", "coordinates": [ -75.576500998586681, 6.230493074577936, 32.0 ] } },
{ "type": "Feature", "properties": { "objectid": 113, "linea": "2", "nombre": "Parada Palos Verdes (Línea 2)", "codigo_mpio": "05001", "municipio": "Medellín", "sistema": "Metroplus", "tipo": "Parada" }, "geometry": { "type": "Point", "coordinates": [ -75.555817217304593, 6.262072712549046, 32.0 ] } },
{ "type": "Feature", "properties": { "objectid": 114, "linea": "1", "nombre": "Parada Parque Aranjuez (Línea 1)", "codigo_mpio": "05001", "municipio": "Medellín", "sistema": "Metroplus", "tipo": "Parada" }, "geometry": { "type": "Point", "coordinates": [ -75.556658988133165, 6.285200131482648, 31.0 ] } },
{ "type": "Feature", "properties": { "objectid": 115, "linea": "1", "nombre": "Estación Universidad de Medellín (Línea 1)", "codigo_mpio": "05001", "municipio": "Medellín", "sistema": "Metroplus", "tipo": "Estación" }, "geometry": { "type": "Point", "coordinates": [ -75.609224896926847, 6.230666881831705, 31.0 ] } },
{ "type": "Feature", "properties": { "objectid": 116, "linea": "O", "nombre": "Parada Caribe Buses CR 64", "codigo_mpio": "05001", "municipio": "Medellín", "sistema": "Metroplus", "tipo": "Paradero" }, "geometry": { "type": "Point", "coordinates": [ -75.570361930799621, 6.277513430009839, 30.0 ] } },
{ "type": "Feature", "properties": { "objectid": 117, "linea": "O", "nombre": "Parada Cementerio Universal", "codigo_mpio": "05001", "municipio": "Medellín", "sistema": "Metroplus", "tipo": "Paradero" }, "geometry": { "type": "Point", "coordinates": [ -75.574029872478945, 6.275356526230545, 30.0 ] } },
{ "type": "Feature", "properties": { "objectid": 118, "linea": "O", "nombre": "Parada Barrio Cordoba Tranversal 78", "codigo_mpio": "05001", "municipio": "Medellín", "sistema": "Metroplus", "tipo": "Paradero" }, "geometry": { "type": "Point", "coordinates": [ -75.578337376012982, 6.273774065934862, 30.0 ] } },
{ "type": "Feature", "properties": { "objectid": 119, "linea": "O", "nombre": "Parada Barrio Pilarica CL 73 x CR 72A", "codigo_mpio": "05001", "municipio": "Medellín", "sistema": "Metroplus", "tipo": "Paradero" }, "geometry": { "type": "Point", "coordinates": [ -75.582596638219627, 6.273625346638896, 30.0 ] } },
{ "type": "Feature", "properties": { "objectid": 120, "linea": "O", "nombre": "Parada Ciudadela Universitaria", "codigo_mpio": "05001", "municipio": "Medellín", "sistema": "Metroplus", "tipo": "Paradero" }, "geometry": { "type": "Point", "coordinates": [ -75.587526032848444, 6.273130261831812, 30.0 ] } },
{ "type": "Feature", "properties": { "objectid": 121, "linea": "O", "nombre": "Parada Facultad de Minas", "codigo_mpio": "05001", "municipio": "Medellín", "sistema": "Metroplus", "tipo": "Paradero" }, "geometry": { "type": "Point", "coordinates": [ -75.593788436629069, 6.272149749718737, 30.0 ] } },
{ "type": "Feature", "properties": { "objectid": 122, "linea": "O", "nombre": "Parada Barrio los Colores AV 80 x CL 54", "codigo_mpio": "05001", "municipio": "Medellín", "sistema": "Metroplus", "tipo": "Paradero" }, "geometry": { "type": "Point", "coordinates": [ -75.595246835323152, 6.270108737399159, 30.0 ] } },
{ "type": "Feature", "properties": { "objectid": 123, "linea": "O", "nombre": "Parada Barrio Calazans", "codigo_mpio": "05001", "municipio": "Medellín", "sistema": "Metroplus", "tipo": "Paradero" }, "geometry": { "type": "Point", "coordinates": [ -75.596346670573283, 6.265198266673847, 30.0 ] } },
{ "type": "Feature", "properties": { "objectid": 124, "linea": "O", "nombre": "Parada Integracion Estación Floresta", "codigo_mpio": "05001", "municipio": "Medellín", "sistema": "Metroplus", "tipo": "Paradero" }, "geometry": { "type": "Point", "coordinates": [ -75.597937007528103, 6.258128346778072, 30.0 ] } },
{ "type": "Feature", "properties": { "objectid": 125, "linea": "O", "nombre": "Parada Barrio Los Pinos", "codigo_mpio": "05001", "municipio": "Medellín", "sistema": "Metroplus", "tipo": "Paradero" }, "geometry": { "type": "Point", "coordinates": [ -75.598813159577546, 6.254694791674605, 30.0 ] } },
{ "type": "Feature", "properties": { "objectid": 126, "linea": "O", "nombre": "Parada Barrio Laureles", "codigo_mpio": "05001", "municipio": "Medellín", "sistema": "Metroplus", "tipo": "Paradero" }, "geometry": { "type": "Point", "coordinates": [ -75.602625172163798, 6.246320653030796, 30.0 ] } },
{ "type": "Feature", "properties": { "objectid": 127, "linea": "O", "nombre": "Parada  Santa Gema", "codigo_mpio": "05001", "municipio": "Medellín", "sistema": "Metroplus", "tipo": "Paradero" }, "geometry": { "type": "Point", "coordinates": [ -75.602983696081907, 6.240032634116212, 30.0 ] } },
{ "type": "Feature", "properties": { "objectid": 128, "linea": "O", "nombre": "Parada Nueva Villa de Aburrá", "codigo_mpio": "05001", "municipio": "Medellín", "sistema": "Metroplus", "tipo": "Paradero" }, "geometry": { "type": "Point", "coordinates": [ -75.602285041251136, 6.234919385721926, 30.0 ] } },
{ "type": "Feature", "properties": { "objectid": 129, "linea": "O", "nombre": "Parada Integracion La Palma", "codigo_mpio": "05001", "municipio": "Medellín", "sistema": "Metroplus", "tipo": "Paradero" }, "geometry": { "type": "Point", "coordinates": [ -75.602217684672809, 6.232829052972822, 30.0 ] } },
{ "type": "Feature", "properties": { "objectid": 130, "linea": "O", "nombre": "Parada Integracion La Palma", "codigo_mpio": "05001", "municipio": "Medellín", "sistema": "Metroplus", "tipo": "Paradero" }, "geometry": { "type": "Point", "coordinates": [ -75.602100596462051, 6.23243079122413, 30.0 ] } },
{ "type": "Feature", "properties": { "objectid": 131, "linea": "O", "nombre": "Parada Caribe Buses CR 64", "codigo_mpio": "05001", "municipio": "Medellín", "sistema": "Metroplus", "tipo": "Paradero" }, "geometry": { "type": "Point", "coordinates": [ -75.570361930799621, 6.277513430009839, 30.0 ] } },
{ "type": "Feature", "properties": { "objectid": 132, "linea": "O", "nombre": "Parada  Nueva Villa de Aburrá", "codigo_mpio": "05001", "municipio": "Medellín", "sistema": "Metroplus", "tipo": "Paradero" }, "geometry": { "type": "Point", "coordinates": [ -75.60218009826302, 6.23537037550348, 30.0 ] } },
{ "type": "Feature", "properties": { "objectid": 133, "linea": "O", "nombre": "Parada Barrio Santa Gema", "codigo_mpio": "05001", "municipio": "Medellín", "sistema": "Metroplus", "tipo": "Paradero" }, "geometry": { "type": "Point", "coordinates": [ -75.602893401921122, 6.239729527200058, 30.0 ] } },
{ "type": "Feature", "properties": { "objectid": 134, "linea": "O", "nombre": "Parada Barrio Laureles", "codigo_mpio": "05001", "municipio": "Medellín", "sistema": "Metroplus", "tipo": "Paradero" }, "geometry": { "type": "Point", "coordinates": [ -75.602517124598052, 6.246309775613529, 30.0 ] } },
{ "type": "Feature", "properties": { "objectid": 135, "linea": "O", "nombre": "Parada Barrio Los Pinos", "codigo_mpio": "05001", "municipio": "Medellín", "sistema": "Metroplus", "tipo": "Paradero" }, "geometry": { "type": "Point", "coordinates": [ -75.598532354304552, 6.255031808399294, 30.0 ] } },
{ "type": "Feature", "properties": { "objectid": 136, "linea": "O", "nombre": "Parada Integracion Barrio Floresta", "codigo_mpio": "05001", "municipio": "Medellín", "sistema": "Metroplus", "tipo": "Paradero" }, "geometry": { "type": "Point", "coordinates": [ -75.597569985547409, 6.259210679145302, 30.0 ] } },
{ "type": "Feature", "properties": { "objectid": 137, "linea": "O", "nombre": "Parada Barrio Calazans", "codigo_mpio": "05001", "municipio": "Medellín", "sistema": "Metroplus", "tipo": "Paradero" }, "geometry": { "type": "Point", "coordinates": [ -75.596408563598061, 6.2644658230057, 30.0 ] } },
{ "type": "Feature", "properties": { "objectid": 138, "linea": "O", "nombre": "Parada Barrio los colores AV 80 x CL 54", "codigo_mpio": "05001", "municipio": "Medellín", "sistema": "Metroplus", "tipo": "Paradero" }, "geometry": { "type": "Point", "coordinates": [ -75.595186553876019, 6.269905465449481, 30.0 ] } },
{ "type": "Feature", "properties": { "objectid": 139, "linea": "O", "nombre": "Parada Facultad de Minas", "codigo_mpio": "05001", "municipio": "Medellín", "sistema": "Metroplus", "tipo": "Paradero" }, "geometry": { "type": "Point", "coordinates": [ -75.592150131434693, 6.273785083863971, 30.0 ] } },
{ "type": "Feature", "properties": { "objectid": 140, "linea": "O", "nombre": "Parada Ciudadela Universitaria", "codigo_mpio": "05001", "municipio": "Medellín", "sistema": "Metroplus", "tipo": "Paradero" }, "geometry": { "type": "Point", "coordinates": [ -75.588581819208613, 6.273024663156684, 30.0 ] } },
{ "type": "Feature", "properties": { "objectid": 141, "linea": "O", "nombre": "Parada Barrio Pilarica CL 73 x CR 72A", "codigo_mpio": "05001", "municipio": "Medellín", "sistema": "Metroplus", "tipo": "Paradero" }, "geometry": { "type": "Point", "coordinates": [ -75.582761446734935, 6.273552208064601, 30.0 ] } },
{ "type": "Feature", "properties": { "objectid": 142, "linea": "O", "nombre": "Parada Barrio Cordoba CR 67 x CL 78A", "codigo_mpio": "05001", "municipio": "Medellín", "sistema": "Metroplus", "tipo": "Paradero" }, "geometry": { "type": "Point", "coordinates": [ -75.578250473890691, 6.274111479304706, 30.0 ] } },
{ "type": "Feature", "properties": { "objectid": 143, "linea": "O", "nombre": "Parada Cementerio Universal CR 65", "codigo_mpio": "05001", "municipio": "Medellín", "sistema": "Metroplus", "tipo": "Paradero" }, "geometry": { "type": "Point", "coordinates": [ -75.573167735046255, 6.276849812837528, 30.0 ] } },
{ "type": "Feature", "properties": { "objectid": 144, "linea": "2", "nombre": "Parada Parque Aranjuez (Línea 2)", "codigo_mpio": "05001", "municipio": "Medellín", "sistema": "Metroplus", "tipo": "Parada" }, "geometry": { "type": "Point", "coordinates": [ -75.556658988133165, 6.285200131482648, 32.0 ] } },
{ "type": "Feature", "properties": { "objectid": 145, "linea": "2", "nombre": "Parada Berlin (Línea 2)", "codigo_mpio": "05001", "municipio": "Medellín", "sistema": "Metroplus", "tipo": "Parada" }, "geometry": { "type": "Point", "coordinates": [ -75.552937991953186, 6.282931999987182, 32.0 ] } },
{ "type": "Feature", "properties": { "objectid": 146, "linea": "2", "nombre": "Parada Berlin (Línea 2)", "codigo_mpio": "05001", "municipio": "Medellín", "sistema": "Metroplus", "tipo": "Parada" }, "geometry": { "type": "Point", "coordinates": [ -75.552870231132957, 6.282925940634459, 32.0 ] } },
{ "type": "Feature", "properties": { "objectid": 147, "linea": "2", "nombre": "Parada Las Esmeraldas (Línea 2)", "codigo_mpio": "05001", "municipio": "Medellín", "sistema": "Metroplus", "tipo": "Parada" }, "geometry": { "type": "Point", "coordinates": [ -75.553168021751347, 6.278393450022571, 32.0 ] } },
{ "type": "Feature", "properties": { "objectid": 148, "linea": "2", "nombre": "Parada Las Esmeraldas (Línea 2)", "codigo_mpio": "05001", "municipio": "Medellín", "sistema": "Metroplus", "tipo": "Parada" }, "geometry": { "type": "Point", "coordinates": [ -75.553125975206157, 6.278386814678823, 32.0 ] } },
{ "type": "Feature", "properties": { "objectid": 149, "linea": "2", "nombre": "Parada Manrique (Línea 2)", "codigo_mpio": "05001", "municipio": "Medellín", "sistema": "Metroplus", "tipo": "Parada" }, "geometry": { "type": "Point", "coordinates": [ -75.5540786933622, 6.27325743471826, 32.0 ] } },
{ "type": "Feature", "properties": { "objectid": 150, "linea": "2", "nombre": "Parada Manrique (Línea 2)", "codigo_mpio": "05001", "municipio": "Medellín", "sistema": "Metroplus", "tipo": "Parada" }, "geometry": { "type": "Point", "coordinates": [ -75.554023550278472, 6.273248297301723, 32.0 ] } },
{ "type": "Feature", "properties": { "objectid": 151, "linea": "2", "nombre": "Parada Gardel (Línea 2)", "codigo_mpio": "05001", "municipio": "Medellín", "sistema": "Metroplus", "tipo": "Parada" }, "geometry": { "type": "Point", "coordinates": [ -75.555044130764344, 6.267667781106575, 32.0 ] } },
{ "type": "Feature", "properties": { "objectid": 152, "linea": "2", "nombre": "Parada Gardel (Línea 2)", "codigo_mpio": "05001", "municipio": "Medellín", "sistema": "Metroplus", "tipo": "Parada" }, "geometry": { "type": "Point", "coordinates": [ -75.554990729513975, 6.267663264586667, 32.0 ] } },
{ "type": "Feature", "properties": { "objectid": 153, "linea": "2", "nombre": "Parada Nutibara (Línea 2)", "codigo_mpio": "05001", "municipio": "Medellín", "sistema": "Metroplus", "tipo": "Parada" }, "geometry": { "type": "Point", "coordinates": [ -75.582055274801874, 6.231736793871373, 32.0 ] } },
{ "type": "Feature", "properties": { "objectid": 154, "linea": "2", "nombre": "Parada Nutibara (Línea 2)", "codigo_mpio": "05001", "municipio": "Medellín", "sistema": "Metroplus", "tipo": "Parada" }, "geometry": { "type": "Point", "coordinates": [ -75.582058160190542, 6.231865202922839, 32.0 ] } },
{ "type": "Feature", "properties": { "objectid": 155, "linea": "2", "nombre": "Parada Fátima (Línea 2)", "codigo_mpio": "05001", "municipio": "Medellín", "sistema": "Metroplus", "tipo": "Parada" }, "geometry": { "type": "Point", "coordinates": [ -75.586562004902987, 6.231614213447395, 32.0 ] } },
{ "type": "Feature", "properties": { "objectid": 156, "linea": "2", "nombre": "Parada Fátima (Línea 2)", "codigo_mpio": "05001", "municipio": "Medellín", "sistema": "Metroplus", "tipo": "Parada" }, "geometry": { "type": "Point", "coordinates": [ -75.586564113248954, 6.23174271629464, 32.0 ] } },
{ "type": "Feature", "properties": { "objectid": 157, "linea": "2", "nombre": "Parada Rosales (Línea 2)", "codigo_mpio": "05001", "municipio": "Medellín", "sistema": "Metroplus", "tipo": "Parada" }, "geometry": { "type": "Point", "coordinates": [ -75.590968226998555, 6.231539564279672, 32.0 ] } },
{ "type": "Feature", "properties": { "objectid": 158, "linea": "2", "nombre": "Parada Rosales (Línea 2)", "codigo_mpio": "05001", "municipio": "Medellín", "sistema": "Metroplus", "tipo": "Parada" }, "geometry": { "type": "Point", "coordinates": [ -75.590970014645961, 6.231596188986988, 32.0 ] } },
{ "type": "Feature", "properties": { "objectid": 159, "linea": "2", "nombre": "Parada Parque Belén (Línea 2)", "codigo_mpio": "05001", "municipio": "Medellín", "sistema": "Metroplus", "tipo": "Parada" }, "geometry": { "type": "Point", "coordinates": [ -75.596747317393366, 6.231330312049663, 32.0 ] } },
{ "type": "Feature", "properties": { "objectid": 160, "linea": "2", "nombre": "Parada Parque Belén (Línea 2)", "codigo_mpio": "05001", "municipio": "Medellín", "sistema": "Metroplus", "tipo": "Parada" }, "geometry": { "type": "Point", "coordinates": [ -75.596750006949321, 6.231396026705125, 32.0 ] } },
{ "type": "Feature", "properties": { "objectid": 161, "linea": "2", "nombre": "Parada La Palma (Línea 2)", "codigo_mpio": "05001", "municipio": "Medellín", "sistema": "Metroplus", "tipo": "Parada" }, "geometry": { "type": "Point", "coordinates": [ -75.601024052730622, 6.231109713174201, 32.0 ] } },
{ "type": "Feature", "properties": { "objectid": 162, "linea": "2", "nombre": "Parada La Palma (Línea 2)", "codigo_mpio": "05001", "municipio": "Medellín", "sistema": "Metroplus", "tipo": "Parada" }, "geometry": { "type": "Point", "coordinates": [ -75.601027875960469, 6.231177751464328, 32.0 ] } },
{ "type": "Feature", "properties": { "objectid": 163, "linea": "2", "nombre": "Parada Los Alpes (Línea 2)", "codigo_mpio": "05001", "municipio": "Medellín", "sistema": "Metroplus", "tipo": "Parada" }, "geometry": { "type": "Point", "coordinates": [ -75.605166379440107, 6.231023115483211, 32.0 ] } },
{ "type": "Feature", "properties": { "objectid": 164, "linea": "2", "nombre": "Parada Los Alpes (Línea 2)", "codigo_mpio": "05001", "municipio": "Medellín", "sistema": "Metroplus", "tipo": "Parada" }, "geometry": { "type": "Point", "coordinates": [ -75.605168733924472, 6.231092741553155, 32.0 ] } },
{ "type": "Feature", "properties": { "objectid": 165, "linea": "2", "nombre": "Estación Universidad de Medellín (Línea 2)", "codigo_mpio": "05001", "municipio": "Medellín", "sistema": "Metroplus", "tipo": "Estación" }, "geometry": { "type": "Point", "coordinates": [ -75.609224896926847, 6.230666881831705, 32.0 ] } },
{ "type": "Feature", "properties": { "objectid": 166, "linea": "2", "nombre": "Parada Parque Aranjuez (Línea 2)", "codigo_mpio": "05001", "municipio": "Medellín", "sistema": "Metroplus", "tipo": "Parada" }, "geometry": { "type": "Point", "coordinates": [ -75.556658988133165, 6.285200131482648, 32.0 ] } },
{ "type": "Feature", "properties": { "objectid": 167, "linea": "2", "nombre": "Estación Universidad de Medellín (Línea 2)", "codigo_mpio": "05001", "municipio": "Medellín", "sistema": "Metroplus", "tipo": "Estación" }, "geometry": { "type": "Point", "coordinates": [ -75.609224896926847, 6.230666881831705, 32.0 ] } }
]
}
