{
  "type": "FeatureCollection",
  "features": [
    {"type":"Feature","properties":{"nombre_parada":"Carrera 8 con Calle 31 Lado Sur","coordenada_x":"-74.785825","coordenada_y":"10.94677","nombre_ruta":"A1-2 Carrera 8","secuencia_parada":"1"},"geometry":{"type":"Point","coordinates":[-74.785825,10.94677]}},{"type":"Feature","properties":{"nombre_parada":"Calle 30 con Carrera 4B Home Center","coordenada_x":"-74.784848","coordenada_y":"10.947509","nombre_ruta":"A1-2 Carrera 8","secuencia_parada":"2"},"geometry":{"type":"Point","coordinates":[-74.784848,10.947509]}},{"type":"Feature","properties":{"nombre_parada":"Carrera 14 con Calle 30","coordenada_x":"-74.786842","coordenada_y":"10.952259","nombre_ruta":"A1-2 Carrera 8","secuencia_parada":"3"},"geometry":{"type":"Point","coordinates":[-74.786842,10.952259]}},{"type":"Feature","properties":{"nombre_parada":"Calle 31 No. 13-39","coordenada_x":"-74.786862","coordenada_y":"10.950202","nombre_ruta":"A1-2 Carrera 8","secuencia_parada":"4"},"geometry":{"type":"Point","coordinates":[-74.786862,10.950202]}},{"type":"Feature","properties":{"nombre_parada":"Calle 31 con Carrera 11","coordenada_x":"-74.786426","coordenada_y":"10.948802","nombre_ruta":"A1-2 Carrera 8","secuencia_parada":"5"},"geometry":{"type":"Point","coordinates":[-74.786426,10.948802]}},{"type":"Feature","properties":{"nombre_parada":"Carrera 8 No. 30-158 Lado Norte Torres de Las Palm","coordenada_x":"-74.786867","coordenada_y":"10.946696","nombre_ruta":"A1-2 Carrera 8","secuencia_parada":"6"},"geometry":{"type":"Point","coordinates":[-74.786867,10.946696]}},{"type":"Feature","properties":{"nombre_parada":"Carrera 8 No. 34-26 Lado Norte","coordenada_x":"-74.788999","coordenada_y":"10.946451","nombre_ruta":"A1-2 Carrera 8","secuencia_parada":"7"},"geometry":{"type":"Point","coordinates":[-74.788999,10.946451]}},{"type":"Feature","properties":{"nombre_parada":"Carrera 8 con Calle 35A Lado Norte","coordenada_x":"-74.791229","coordenada_y":"10.946205","nombre_ruta":"A1-2 Carrera 8","secuencia_parada":"8"},"geometry":{"type":"Point","coordinates":[-74.791229,10.946205]}},{"type":"Feature","properties":{"nombre_parada":"Carrera 8 con Calle 37D Lado Norte","coordenada_x":"-74.793248","coordenada_y":"10.945931","nombre_ruta":"A1-2 Carrera 8","secuencia_parada":"9"},"geometry":{"type":"Point","coordinates":[-74.793248,10.945931]}},{"type":"Feature","properties":{"nombre_parada":"Carrera 8 No. 40-32 Lado Norte","coordenada_x":"-74.795742","coordenada_y":"10.946245","nombre_ruta":"A1-2 Carrera 8","secuencia_parada":"10"},"geometry":{"type":"Point","coordinates":[-74.795742,10.946245]}},{"type":"Feature","properties":{"nombre_parada":"Carrera 8 con Calle 42B Lado Norte","coordenada_x":"-74.797833","coordenada_y":"10.946242","nombre_ruta":"A1-2 Carrera 8","secuencia_parada":"11"},"geometry":{"type":"Point","coordinates":[-74.797833,10.946242]}},{"type":"Feature","properties":{"nombre_parada":"Carrera 8 con Calle 45 Lado Norte","coordenada_x":"-74.80004","coordenada_y":"10.946182","nombre_ruta":"A1-2 Carrera 8","secuencia_parada":"12"},"geometry":{"type":"Point","coordinates":[-74.80004,10.946182]}},{"type":"Feature","properties":{"nombre_parada":"Carrera 8 No. 47-84 Lado Norte","coordenada_x":"-74.802865","coordenada_y":"10.946134","nombre_ruta":"A1-2 Carrera 8","secuencia_parada":"13"},"geometry":{"type":"Point","coordinates":[-74.802865,10.946134]}},{"type":"Feature","properties":{"nombre_parada":"Carrera 8 No. 49-64 Lado Norte","coordenada_x":"-74.805547","coordenada_y":"10.946182","nombre_ruta":"A1-2 Carrera 8","secuencia_parada":"14"},"geometry":{"type":"Point","coordinates":[-74.805547,10.946182]}},{"type":"Feature","properties":{"nombre_parada":"Calle 51B con Carrera 8B Lado Oriente","coordenada_x":"-74.806106","coordenada_y":"10.947604","nombre_ruta":"A1-2 Carrera 8","secuencia_parada":"15"},"geometry":{"type":"Point","coordinates":[-74.806106,10.947604]}},{"type":"Feature","properties":{"nombre_parada":"Carrera 8D con Calle 52C Lado Norte","coordenada_x":"-74.807847","coordenada_y":"10.948591","nombre_ruta":"A1-2 Carrera 8","secuencia_parada":"16"},"geometry":{"type":"Point","coordinates":[-74.807847,10.948591]}},{"type":"Feature","properties":{"nombre_parada":"Calle 53 con Carrera 8G Lado Oriente","coordenada_x":"-74.807871","coordenada_y":"10.95143","nombre_ruta":"A1-2 Carrera 8","secuencia_parada":"17"},"geometry":{"type":"Point","coordinates":[-74.807871,10.95143]}},{"type":"Feature","properties":{"nombre_parada":"Calle 56 con Carrera 9D SAO Macarena","coordenada_x":"-74.808092","coordenada_y":"10.954218","nombre_ruta":"A1-2 Carrera 8","secuencia_parada":"18"},"geometry":{"type":"Point","coordinates":[-74.808092,10.954218]}},{"type":"Feature","properties":{"nombre_parada":"Carrera 10 con Calle 54","coordenada_x":"-74.806833","coordenada_y":"10.953969","nombre_ruta":"A1-2 Carrera 8","secuencia_parada":"19"},"geometry":{"type":"Point","coordinates":[-74.806833,10.953969]}},{"type":"Feature","properties":{"nombre_parada":"Calle 53 con Carrera 9D Lado Occidente","coordenada_x":"-74.806762","coordenada_y":"10.95271","nombre_ruta":"A1-2 Carrera 8","secuencia_parada":"20"},"geometry":{"type":"Point","coordinates":[-74.806762,10.95271]}},{"type":"Feature","properties":{"nombre_parada":"Calle 53 con Carrera 8G Lado Occidente","coordenada_x":"-74.808028","coordenada_y":"10.951271","nombre_ruta":"A1-2 Carrera 8","secuencia_parada":"21"},"geometry":{"type":"Point","coordinates":[-74.808028,10.951271]}},{"type":"Feature","properties":{"nombre_parada":"Carrera 8D No. 52-41 Lado Sur","coordenada_x":"-74.808557","coordenada_y":"10.949151","nombre_ruta":"A1-2 Carrera 8","secuencia_parada":"22"},"geometry":{"type":"Point","coordinates":[-74.808557,10.949151]}},{"type":"Feature","properties":{"nombre_parada":"Calle 51B No. 8C-15 Lado Occidente","coordenada_x":"-74.806133","coordenada_y":"10.947859","nombre_ruta":"A1-2 Carrera 8","secuencia_parada":"23"},"geometry":{"type":"Point","coordinates":[-74.806133,10.947859]}},{"type":"Feature","properties":{"nombre_parada":"Carrera 8 con Calle 49 Lado Sur","coordenada_x":"-74.805661","coordenada_y":"10.946058","nombre_ruta":"A1-2 Carrera 8","secuencia_parada":"24"},"geometry":{"type":"Point","coordinates":[-74.805661,10.946058]}},{"type":"Feature","properties":{"nombre_parada":"Carrera 8 No. 47-117 Lado Sur","coordenada_x":"-74.803118","coordenada_y":"10.946057","nombre_ruta":"A1-2 Carrera 8","secuencia_parada":"25"},"geometry":{"type":"Point","coordinates":[-74.803118,10.946057]}},{"type":"Feature","properties":{"nombre_parada":"Carrera 8 con Calle 45 Lado Sur Farmacia Torres","coordenada_x":"-74.800409","coordenada_y":"10.946078","nombre_ruta":"A1-2 Carrera 8","secuencia_parada":"26"},"geometry":{"type":"Point","coordinates":[-74.800409,10.946078]}},{"type":"Feature","properties":{"nombre_parada":"Carrera 8 No. 42-127 Lado Sur","coordenada_x":"-74.798475","coordenada_y":"10.946107","nombre_ruta":"A1-2 Carrera 8","secuencia_parada":"27"},"geometry":{"type":"Point","coordinates":[-74.798475,10.946107]}},{"type":"Feature","properties":{"nombre_parada":"Carrera 8 con Calle 41 Lado Sur","coordenada_x":"-74.795858","coordenada_y":"10.946113","nombre_ruta":"A1-2 Carrera 8","secuencia_parada":"28"},"geometry":{"type":"Point","coordinates":[-74.795858,10.946113]}},{"type":"Feature","properties":{"nombre_parada":"Carrera 8 No. 36B-125 Lado Sur","coordenada_x":"-74.793093","coordenada_y":"10.945887","nombre_ruta":"A1-2 Carrera 8","secuencia_parada":"29"},"geometry":{"type":"Point","coordinates":[-74.793093,10.945887]}},{"type":"Feature","properties":{"nombre_parada":"Carrera 8 con Calle 35A Lado Sur","coordenada_x":"-74.790928","coordenada_y":"10.94619","nombre_ruta":"A1-2 Carrera 8","secuencia_parada":"30"},"geometry":{"type":"Point","coordinates":[-74.790928,10.94619]}},{"type":"Feature","properties":{"nombre_parada":"Carrera 8 con Calle 34 Lado Sur","coordenada_x":"-74.788717","coordenada_y":"10.946428","nombre_ruta":"A1-2 Carrera 8","secuencia_parada":"31"},"geometry":{"type":"Point","coordinates":[-74.788717,10.946428]}},{"type":"Feature","properties":{"nombre_parada":"Carrera 8 con Calle 31 Lado Sur","coordenada_x":"-74.785825","coordenada_y":"10.94677","nombre_ruta":"A1-2 Carrera 8","secuencia_parada":"32"},"geometry":{"type":"Point","coordinates":[-74.785825,10.94677]}},{"type":"Feature","properties":{"nombre_parada":"Carrera 1H con calle 45 esq","coordenada_x":"-74.798927","coordenada_y":"10.932732","nombre_ruta":"A1-3 Galan","secuencia_parada":"1"},"geometry":{"type":"Point","coordinates":[-74.798927,10.932732]}},{"type":"Feature","properties":{"nombre_parada":"Carrera 2E No. 44B-13","coordenada_x":"-74.798927","coordenada_y":"10.934835","nombre_ruta":"A1-3 Galan","secuencia_parada":"2"},"geometry":{"type":"Point","coordinates":[-74.798927,10.934835]}},{"type":"Feature","properties":{"nombre_parada":"Carrera 2B No. 42A-05","coordenada_x":"-74.797133","coordenada_y":"10.934503","nombre_ruta":"A1-3 Galan","secuencia_parada":"3"},"geometry":{"type":"Point","coordinates":[-74.797133,10.934503]}},{"type":"Feature","properties":{"nombre_parada":"Carrera 2 con Calle 39 esq","coordenada_x":"-74.794397","coordenada_y":"10.934873","nombre_ruta":"A1-3 Galan","secuencia_parada":"4"},"geometry":{"type":"Point","coordinates":[-74.794397,10.934873]}},{"type":"Feature","properties":{"nombre_parada":"Carrera 2 No. 37E-23","coordenada_x":"-74.792567","coordenada_y":"10.934828","nombre_ruta":"A1-3 Galan","secuencia_parada":"5"},"geometry":{"type":"Point","coordinates":[-74.792567,10.934828]}},{"type":"Feature","properties":{"nombre_parada":"Calle 37C Carrera 2 Tienda El danubio","coordenada_x":"-74.790987","coordenada_y":"10.93562","nombre_ruta":"A1-3 Galan","secuencia_parada":"6"},"geometry":{"type":"Point","coordinates":[-74.790987,10.93562]}},{"type":"Feature","properties":{"nombre_parada":"Calle 37C con Carrera 3A","coordenada_x":"-74.791567","coordenada_y":"10.937258","nombre_ruta":"A1-3 Galan","secuencia_parada":"7"},"geometry":{"type":"Point","coordinates":[-74.791567,10.937258]}},{"type":"Feature","properties":{"nombre_parada":"Calle 37C No. 3D-04","coordenada_x":"-74.791708","coordenada_y":"10.938568","nombre_ruta":"A1-3 Galan","secuencia_parada":"8"},"geometry":{"type":"Point","coordinates":[-74.791708,10.938568]}},{"type":"Feature","properties":{"nombre_parada":"Carrera 4 con Calle 36 Esq","coordenada_x":"-74.790488","coordenada_y":"10.938947","nombre_ruta":"A1-3 Galan","secuencia_parada":"9"},"geometry":{"type":"Point","coordinates":[-74.790488,10.938947]}},{"type":"Feature","properties":{"nombre_parada":"Carrera 4 con Calle 34B Esq","coordenada_x":"-74.788622","coordenada_y":"10.939295","nombre_ruta":"A1-3 Galan","secuencia_parada":"10"},"geometry":{"type":"Point","coordinates":[-74.788622,10.939295]}},{"type":"Feature","properties":{"nombre_parada":"Carrera 4 No. 30-175 Coltabaco","coordenada_x":"-74.786048","coordenada_y":"10.939613","nombre_ruta":"A1-3 Galan","secuencia_parada":"11"},"geometry":{"type":"Point","coordinates":[-74.786048,10.939613]}},{"type":"Feature","properties":{"nombre_parada":"Carrera 4 con Calle 30 Cannon","coordenada_x":"-74.783297","coordenada_y":"10.939838","nombre_ruta":"A1-3 Galan","secuencia_parada":"12"},"geometry":{"type":"Point","coordinates":[-74.783297,10.939838]}},{"type":"Feature","properties":{"nombre_parada":"Calle 30 con Carrera 2 frente a Coomeva","coordenada_x":"-74.782365","coordenada_y":"10.938205","nombre_ruta":"A1-3 Galan","secuencia_parada":"13"},"geometry":{"type":"Point","coordinates":[-74.782365,10.938205]}},{"type":"Feature","properties":{"nombre_parada":"Carrera 2 con Calle 30 Colegio San Jose","coordenada_x":"-74.782895","coordenada_y":"10.937722","nombre_ruta":"A1-3 Galan","secuencia_parada":"14"},"geometry":{"type":"Point","coordinates":[-74.782895,10.937722]}},{"type":"Feature","properties":{"nombre_parada":"Carrera 2 con Calle 33A esq","coordenada_x":"-74.78478","coordenada_y":"10.936585","nombre_ruta":"A1-3 Galan","secuencia_parada":"15"},"geometry":{"type":"Point","coordinates":[-74.78478,10.936585]}},{"type":"Feature","properties":{"nombre_parada":"Carrera 2 con Calle 34 esq","coordenada_x":"-74.786967","coordenada_y":"10.935955","nombre_ruta":"A1-3 Galan","secuencia_parada":"16"},"geometry":{"type":"Point","coordinates":[-74.786967,10.935955]}},{"type":"Feature","properties":{"nombre_parada":"Carrera 2 con Calle 35A esq","coordenada_x":"-74.789325","coordenada_y":"10.935437","nombre_ruta":"A1-3 Galan","secuencia_parada":"17"},"geometry":{"type":"Point","coordinates":[-74.789325,10.935437]}},{"type":"Feature","properties":{"nombre_parada":"Calle 37C con Carrera 2 Esq","coordenada_x":"-74.791298","coordenada_y":"10.934685","nombre_ruta":"A1-3 Galan","secuencia_parada":"18"},"geometry":{"type":"Point","coordinates":[-74.791298,10.934685]}},{"type":"Feature","properties":{"nombre_parada":"Calle 37C con Carrera 1H esq","coordenada_x":"-74.791708","coordenada_y":"10.932828","nombre_ruta":"A1-3 Galan","secuencia_parada":"19"},"geometry":{"type":"Point","coordinates":[-74.791708,10.932828]}},{"type":"Feature","properties":{"nombre_parada":"Carrera 1H con Calle 37F esq","coordenada_x":"-74.793172","coordenada_y":"10.933207","nombre_ruta":"A1-3 Galan","secuencia_parada":"20"},"geometry":{"type":"Point","coordinates":[-74.793172,10.933207]}},{"type":"Feature","properties":{"nombre_parada":"Carrera 1H con Calle 41B esq","coordenada_x":"-74.79478","coordenada_y":"10.933708","nombre_ruta":"A1-3 Galan","secuencia_parada":"21"},"geometry":{"type":"Point","coordinates":[-74.79478,10.933708]}},{"type":"Feature","properties":{"nombre_parada":"Carrera 1H No. 41B-236","coordenada_x":"-74.796837","coordenada_y":"10.933242","nombre_ruta":"A1-3 Galan","secuencia_parada":"22"},"geometry":{"type":"Point","coordinates":[-74.796837,10.933242]}},{"type":"Feature","properties":{"nombre_parada":"Carrera 1H con calle 45 esq","coordenada_x":"-74.798927","coordenada_y":"10.932732","nombre_ruta":"A1-3 Galan","secuencia_parada":"23"},"geometry":{"type":"Point","coordinates":[-74.798927,10.932732]}},{"type":"Feature","properties":{"nombre_parada":"Carrera 7 con Calle 44","coordenada_x":"-74.799259","coordenada_y":"10.94138","nombre_ruta":"A1-4 La Magdalena","secuencia_parada":"1"},"geometry":{"type":"Point","coordinates":[-74.799259,10.94138]}},{"type":"Feature","properties":{"nombre_parada":"Carrera 7 con Calle 42","coordenada_x":"-74.797674","coordenada_y":"10.943021","nombre_ruta":"A1-4 La Magdalena","secuencia_parada":"2"},"geometry":{"type":"Point","coordinates":[-74.797674,10.943021]}},{"type":"Feature","properties":{"nombre_parada":"Carrera 6B No. 41-101 Lado Sur","coordenada_x":"-74.796807","coordenada_y":"10.941309","nombre_ruta":"A1-4 La Magdalena","secuencia_parada":"3"},"geometry":{"type":"Point","coordinates":[-74.796807,10.941309]}},{"type":"Feature","properties":{"nombre_parada":"Carrera 6B No. 38B-73 Lado Sur","coordenada_x":"-74.794265","coordenada_y":"10.941651","nombre_ruta":"A1-4 La Magdalena","secuencia_parada":"4"},"geometry":{"type":"Point","coordinates":[-74.794265,10.941651]}},{"type":"Feature","properties":{"nombre_parada":"Carrera 6B con Calle 37C Lado Sur","coordenada_x":"-74.79245","coordenada_y":"10.94185","nombre_ruta":"A1-4 La Magdalena","secuencia_parada":"5"},"geometry":{"type":"Point","coordinates":[-74.79245,10.94185]}},{"type":"Feature","properties":{"nombre_parada":"Carrera 6B No. 34C-23 Lado Sur","coordenada_x":"-74.788919","coordenada_y":"10.942309","nombre_ruta":"A1-4 La Magdalena","secuencia_parada":"6"},"geometry":{"type":"Point","coordinates":[-74.788919,10.942309]}},{"type":"Feature","properties":{"nombre_parada":"Carrera 6B No. 33-65 Lado Sur","coordenada_x":"-74.786845","coordenada_y":"10.942884","nombre_ruta":"A1-4 La Magdalena","secuencia_parada":"7"},"geometry":{"type":"Point","coordinates":[-74.786845,10.942884]}},{"type":"Feature","properties":{"nombre_parada":"Carrera 6B con Calle 30 Lado Sur","coordenada_x":"-74.784392","coordenada_y":"10.943153","nombre_ruta":"A1-4 La Magdalena","secuencia_parada":"8"},"geometry":{"type":"Point","coordinates":[-74.784392,10.943153]}},{"type":"Feature","properties":{"nombre_parada":"Carrera 4B No. 23-57 Lado Sur","coordenada_x":"-74.779549","coordenada_y":"10.942376","nombre_ruta":"A1-4 La Magdalena","secuencia_parada":"9"},"geometry":{"type":"Point","coordinates":[-74.779549,10.942376]}},{"type":"Feature","properties":{"nombre_parada":"Calle 19 con Carrera 4A","coordenada_x":"-74.778192","coordenada_y":"10.941577","nombre_ruta":"A1-4 La Magdalena","secuencia_parada":"10"},"geometry":{"type":"Point","coordinates":[-74.778192,10.941577]}},{"type":"Feature","properties":{"nombre_parada":"Carrera 4B con Calle 23 Lado Norte","coordenada_x":"-74.779474","coordenada_y":"10.942344","nombre_ruta":"A1-4 La Magdalena","secuencia_parada":"11"},"geometry":{"type":"Point","coordinates":[-74.779474,10.942344]}},{"type":"Feature","properties":{"nombre_parada":"Carrera 6B con Calle 31 Nacional de Chocolate","coordenada_x":"-74.785247","coordenada_y":"10.94294","nombre_ruta":"A1-4 La Magdalena","secuencia_parada":"12"},"geometry":{"type":"Point","coordinates":[-74.785247,10.94294]}},{"type":"Feature","properties":{"nombre_parada":"Carrera 6B No. 33-58 Lado Norte","coordenada_x":"-74.786828","coordenada_y":"10.942972","nombre_ruta":"A1-4 La Magdalena","secuencia_parada":"13"},"geometry":{"type":"Point","coordinates":[-74.786828,10.942972]}},{"type":"Feature","properties":{"nombre_parada":"Carrera 6B con Calle 34C Lado Norte","coordenada_x":"-74.788677","coordenada_y":"10.942427","nombre_ruta":"A1-4 La Magdalena","secuencia_parada":"14"},"geometry":{"type":"Point","coordinates":[-74.788677,10.942427]}},{"type":"Feature","properties":{"nombre_parada":"Carrera 6B con Calle 36B Lado Norte","coordenada_x":"-74.791518","coordenada_y":"10.942057","nombre_ruta":"A1-4 La Magdalena","secuencia_parada":"15"},"geometry":{"type":"Point","coordinates":[-74.791518,10.942057]}},{"type":"Feature","properties":{"nombre_parada":"Carrera 6B No. 38B-02 Lado Norte","coordenada_x":"-74.793893","coordenada_y":"10.941757","nombre_ruta":"A1-4 La Magdalena","secuencia_parada":"16"},"geometry":{"type":"Point","coordinates":[-74.793893,10.941757]}},{"type":"Feature","properties":{"nombre_parada":"Carrera 6B con Calle 41 Lado Norte","coordenada_x":"-74.796746","coordenada_y":"10.941369","nombre_ruta":"A1-4 La Magdalena","secuencia_parada":"17"},"geometry":{"type":"Point","coordinates":[-74.796746,10.941369]}},{"type":"Feature","properties":{"nombre_parada":"Carrera 7 con Calle 44","coordenada_x":"-74.799259","coordenada_y":"10.94138","nombre_ruta":"A1-4 La Magdalena","secuencia_parada":"18"},"geometry":{"type":"Point","coordinates":[-74.799259,10.94138]}},{"type":"Feature","properties":{"nombre_parada":"Calle 45 con Carrera 1 Metrocentro","coordenada_x":"-74.799333","coordenada_y":"10.93169","nombre_ruta":"A2-1 Hipodromo","secuencia_parada":"1"},"geometry":{"type":"Point","coordinates":[-74.799333,10.93169]}},{"type":"Feature","properties":{"nombre_parada":"Tv 14 sur con calle 45","coordenada_x":"-74.799877","coordenada_y":"10.93025","nombre_ruta":"A2-1 Hipodromo","secuencia_parada":"2"},"geometry":{"type":"Point","coordinates":[-74.799877,10.93025]}},{"type":"Feature","properties":{"nombre_parada":"Calle 45D con Carrera 1 Conj. Res. Metrocentro","coordenada_x":"-74.800533","coordenada_y":"10.931347","nombre_ruta":"A2-1 Hipodromo","secuencia_parada":"3"},"geometry":{"type":"Point","coordinates":[-74.800533,10.931347]}},{"type":"Feature","properties":{"nombre_parada":"Carrera 1E con Calle 45H frente a Bloque 159","coordenada_x":"-74.802072","coordenada_y":"10.931865","nombre_ruta":"A2-1 Hipodromo","secuencia_parada":"4"},"geometry":{"type":"Point","coordinates":[-74.802072,10.931865]}},{"type":"Feature","properties":{"nombre_parada":"Av. Las Torres frente Nom. 45H-42 Lado Sur","coordenada_x":"-74.802065","coordenada_y":"10.930277","nombre_ruta":"A2-1 Hipodromo","secuencia_parada":"5"},"geometry":{"type":"Point","coordinates":[-74.802065,10.930277]}},{"type":"Feature","properties":{"nombre_parada":"Av. Las Torres con Calle 44B Lado Sur","coordenada_x":"-74.798772","coordenada_y":"10.929922","nombre_ruta":"A2-1 Hipodromo","secuencia_parada":"6"},"geometry":{"type":"Point","coordinates":[-74.798772,10.929922]}},{"type":"Feature","properties":{"nombre_parada":"Av. Las Torres No. 41C-93 Lado Sur","coordenada_x":"-74.796522","coordenada_y":"10.929695","nombre_ruta":"A2-1 Hipodromo","secuencia_parada":"7"},"geometry":{"type":"Point","coordinates":[-74.796522,10.929695]}},{"type":"Feature","properties":{"nombre_parada":"Av. Las Torres No. 56A-93 Lado Sur Soledad","coordenada_x":"-74.79439","coordenada_y":"10.929483","nombre_ruta":"A2-1 Hipodromo","secuencia_parada":"8"},"geometry":{"type":"Point","coordinates":[-74.79439,10.929483]}},{"type":"Feature","properties":{"nombre_parada":"Av. Las Torres con Calle 54D Lado Sur Soledad","coordenada_x":"-74.791593","coordenada_y":"10.929482","nombre_ruta":"A2-1 Hipodromo","secuencia_parada":"9"},"geometry":{"type":"Point","coordinates":[-74.791593,10.929482]}},{"type":"Feature","properties":{"nombre_parada":"Av. Las Torres No. 48-25 Lado Sur Soledad","coordenada_x":"-74.78906","coordenada_y":"10.930147","nombre_ruta":"A2-1 Hipodromo","secuencia_parada":"10"},"geometry":{"type":"Point","coordinates":[-74.78906,10.930147]}},{"type":"Feature","properties":{"nombre_parada":"Av. Las Torres No. 44-33 Lado Sur Soledad","coordenada_x":"-74.78645","coordenada_y":"10.930925","nombre_ruta":"A2-1 Hipodromo","secuencia_parada":"11"},"geometry":{"type":"Point","coordinates":[-74.78645,10.930925]}},{"type":"Feature","properties":{"nombre_parada":"Calle 30 Colegio ITIDA","coordenada_x":"-74.780267","coordenada_y":"10.930997","nombre_ruta":"A2-1 Hipodromo","secuencia_parada":"12"},"geometry":{"type":"Point","coordinates":[-74.780267,10.930997]}},{"type":"Feature","properties":{"nombre_parada":"Carrera 30 con Calle 30 SAO Hipodromo Lado Sur","coordenada_x":"-74.77786","coordenada_y":"10.927345","nombre_ruta":"A2-1 Hipodromo","secuencia_parada":"13"},"geometry":{"type":"Point","coordinates":[-74.77786,10.927345]}},{"type":"Feature","properties":{"nombre_parada":"Carrera 30 con Calle 29 Lado Sur Soledad","coordenada_x":"-74.774838","coordenada_y":"10.928045","nombre_ruta":"A2-1 Hipodromo","secuencia_parada":"14"},"geometry":{"type":"Point","coordinates":[-74.774838,10.928045]}},{"type":"Feature","properties":{"nombre_parada":"Carrera 30 con Calle 27 Lado Sur Soledad","coordenada_x":"-74.772903","coordenada_y":"10.927622","nombre_ruta":"A2-1 Hipodromo","secuencia_parada":"15"},"geometry":{"type":"Point","coordinates":[-74.772903,10.927622]}},{"type":"Feature","properties":{"nombre_parada":"Carrera 30 No. 24-151 Lado Sur Soledad","coordenada_x":"-74.76981","coordenada_y":"10.926817","nombre_ruta":"A2-1 Hipodromo","secuencia_parada":"16"},"geometry":{"type":"Point","coordinates":[-74.76981,10.926817]}},{"type":"Feature","properties":{"nombre_parada":"Calle 24 con Carrera 31 Soledad","coordenada_x":"-74.768267","coordenada_y":"10.926987","nombre_ruta":"A2-1 Hipodromo","secuencia_parada":"17"},"geometry":{"type":"Point","coordinates":[-74.768267,10.926987]}},{"type":"Feature","properties":{"nombre_parada":"Calle 24 con Carrera 33 Soledad","coordenada_x":"-74.768103","coordenada_y":"10.927953","nombre_ruta":"A2-1 Hipodromo","secuencia_parada":"18"},"geometry":{"type":"Point","coordinates":[-74.768103,10.927953]}},{"type":"Feature","properties":{"nombre_parada":"Calle 24 con Carrera 34 Soledad","coordenada_x":"-74.767977","coordenada_y":"10.928907","nombre_ruta":"A2-1 Hipodromo","secuencia_parada":"19"},"geometry":{"type":"Point","coordinates":[-74.767977,10.928907]}},{"type":"Feature","properties":{"nombre_parada":"Carrera 35 con Calle 25B esq Soledad","coordenada_x":"-74.770465","coordenada_y":"10.92987","nombre_ruta":"A2-1 Hipodromo","secuencia_parada":"20"},"geometry":{"type":"Point","coordinates":[-74.770465,10.92987]}},{"type":"Feature","properties":{"nombre_parada":"Carrera 37 No. 25A-13 Soledad","coordenada_x":"-74.769835","coordenada_y":"10.931178","nombre_ruta":"A2-1 Hipodromo","secuencia_parada":"21"},"geometry":{"type":"Point","coordinates":[-74.769835,10.931178]}},{"type":"Feature","properties":{"nombre_parada":"Carrera 37 con Calle 23A esq Soledad","coordenada_x":"-74.767895","coordenada_y":"10.931365","nombre_ruta":"A2-1 Hipodromo","secuencia_parada":"22"},"geometry":{"type":"Point","coordinates":[-74.767895,10.931365]}},{"type":"Feature","properties":{"nombre_parada":"Carrera 37 con Calle 18A esq Soledad","coordenada_x":"-74.764956","coordenada_y":"10.931863","nombre_ruta":"A2-1 Hipodromo","secuencia_parada":"23"},"geometry":{"type":"Point","coordinates":[-74.764956,10.931863]}},{"type":"Feature","properties":{"nombre_parada":"Calle 18 con Carrera 36A esq Soledad","coordenada_x":"-74.764512","coordenada_y":"10.931152","nombre_ruta":"A2-1 Hipodromo","secuencia_parada":"24"},"geometry":{"type":"Point","coordinates":[-74.764512,10.931152]}},{"type":"Feature","properties":{"nombre_parada":"Calle 18 No. 32-59 Soledad","coordenada_x":"-74.76435","coordenada_y":"10.92868","nombre_ruta":"A2-1 Hipodromo","secuencia_parada":"25"},"geometry":{"type":"Point","coordinates":[-74.76435,10.92868]}},{"type":"Feature","properties":{"nombre_parada":"Calle 18 con Carrera 30 Soledad","coordenada_x":"-74.764153","coordenada_y":"10.926713","nombre_ruta":"A2-1 Hipodromo","secuencia_parada":"26"},"geometry":{"type":"Point","coordinates":[-74.764153,10.926713]}},{"type":"Feature","properties":{"nombre_parada":"Calle 18 con Carrera 27 Soledad","coordenada_x":"-74.763768","coordenada_y":"10.924445","nombre_ruta":"A2-1 Hipodromo","secuencia_parada":"27"},"geometry":{"type":"Point","coordinates":[-74.763768,10.924445]}},{"type":"Feature","properties":{"nombre_parada":"Calle 18 No. 25A-16 Soledad","coordenada_x":"-74.763537","coordenada_y":"10.92153","nombre_ruta":"A2-1 Hipodromo","secuencia_parada":"28"},"geometry":{"type":"Point","coordinates":[-74.763537,10.92153]}},{"type":"Feature","properties":{"nombre_parada":"Calle 18 No. 23-37 Soledad","coordenada_x":"-74.764115","coordenada_y":"10.919673","nombre_ruta":"A2-1 Hipodromo","secuencia_parada":"29"},"geometry":{"type":"Point","coordinates":[-74.764115,10.919673]}},{"type":"Feature","properties":{"nombre_parada":"Calle 18 No. 21-37 Soledad","coordenada_x":"-74.765113","coordenada_y":"10.917542","nombre_ruta":"A2-1 Hipodromo","secuencia_parada":"30"},"geometry":{"type":"Point","coordinates":[-74.765113,10.917542]}},{"type":"Feature","properties":{"nombre_parada":"Carrera 19 Frente Nom. 20-19 Soledad","coordenada_x":"-74.7671","coordenada_y":"10.916582","nombre_ruta":"A2-1 Hipodromo","secuencia_parada":"31"},"geometry":{"type":"Point","coordinates":[-74.7671,10.916582]}},{"type":"Feature","properties":{"nombre_parada":"Calle 23 con Carrera 19A esq Soledad","coordenada_x":"-74.768873","coordenada_y":"10.917762","nombre_ruta":"A2-1 Hipodromo","secuencia_parada":"32"},"geometry":{"type":"Point","coordinates":[-74.768873,10.917762]}},{"type":"Feature","properties":{"nombre_parada":"Calle 23 No. 22-36 Soledad","coordenada_x":"-74.768107","coordenada_y":"10.920545","nombre_ruta":"A2-1 Hipodromo","secuencia_parada":"33"},"geometry":{"type":"Point","coordinates":[-74.768107,10.920545]}},{"type":"Feature","properties":{"nombre_parada":"Calle 23 No. 25-40 Soledad","coordenada_x":"-74.767398","coordenada_y":"10.922783","nombre_ruta":"A2-1 Hipodromo","secuencia_parada":"34"},"geometry":{"type":"Point","coordinates":[-74.767398,10.922783]}},{"type":"Feature","properties":{"nombre_parada":"Carrera 26 No. 24A-32 Soledad","coordenada_x":"-74.768765","coordenada_y":"10.923965","nombre_ruta":"A2-1 Hipodromo","secuencia_parada":"35"},"geometry":{"type":"Point","coordinates":[-74.768765,10.923965]}},{"type":"Feature","properties":{"nombre_parada":"Carrera 30 con Calle 24 Lado Norte Soledad","coordenada_x":"-74.768853","coordenada_y":"10.926667","nombre_ruta":"A2-1 Hipodromo","secuencia_parada":"36"},"geometry":{"type":"Point","coordinates":[-74.768853,10.926667]}},{"type":"Feature","properties":{"nombre_parada":"Carrera 30 con Calle 27 esq Lado Norte Soledad","coordenada_x":"-74.772697","coordenada_y":"10.927552","nombre_ruta":"A2-1 Hipodromo","secuencia_parada":"37"},"geometry":{"type":"Point","coordinates":[-74.772697,10.927552]}},{"type":"Feature","properties":{"nombre_parada":"Carrera 30 con Calle 29C esq Lado Norte Soledad","coordenada_x":"-74.775767","coordenada_y":"10.927883","nombre_ruta":"A2-1 Hipodromo","secuencia_parada":"38"},"geometry":{"type":"Point","coordinates":[-74.775767,10.927883]}},{"type":"Feature","properties":{"nombre_parada":"Carrera 30 con Calle 30 SAO Hipodromo Lado Norte","coordenada_x":"-74.77775","coordenada_y":"10.92744","nombre_ruta":"A2-1 Hipodromo","secuencia_parada":"39"},"geometry":{"type":"Point","coordinates":[-74.77775,10.92744]}},{"type":"Feature","properties":{"nombre_parada":"Calle 30 con Carrera 34A entrada al Tucan Soledad","coordenada_x":"-74.779742","coordenada_y":"10.930023","nombre_ruta":"A2-1 Hipodromo","secuencia_parada":"40"},"geometry":{"type":"Point","coordinates":[-74.779742,10.930023]}},{"type":"Feature","properties":{"nombre_parada":"Calle 30 Colegio INEM","coordenada_x":"-74.78023","coordenada_y":"10.93168","nombre_ruta":"A2-1 Hipodromo","secuencia_parada":"41"},"geometry":{"type":"Point","coordinates":[-74.78023,10.93168]}},{"type":"Feature","properties":{"nombre_parada":"Av. Las Torres Circunvalar Iglesia Lado Norte","coordenada_x":"-74.784507","coordenada_y":"10.931798","nombre_ruta":"A2-1 Hipodromo","secuencia_parada":"42"},"geometry":{"type":"Point","coordinates":[-74.784507,10.931798]}},{"type":"Feature","properties":{"nombre_parada":"Av. Las Torres con Calle 45 Olimpica Soledad","coordenada_x":"-74.787303","coordenada_y":"10.930985","nombre_ruta":"A2-1 Hipodromo","secuencia_parada":"43"},"geometry":{"type":"Point","coordinates":[-74.787303,10.930985]}},{"type":"Feature","properties":{"nombre_parada":"Av. Las Torres con Calle 54 Lado Norte Soledad","coordenada_x":"-74.790683","coordenada_y":"10.929845","nombre_ruta":"A2-1 Hipodromo","secuencia_parada":"44"},"geometry":{"type":"Point","coordinates":[-74.790683,10.929845]}},{"type":"Feature","properties":{"nombre_parada":"Av. Las Torres No. 56A-12 Lado Norte Soledad","coordenada_x":"-74.793657","coordenada_y":"10.929528","nombre_ruta":"A2-1 Hipodromo","secuencia_parada":"45"},"geometry":{"type":"Point","coordinates":[-74.793657,10.929528]}},{"type":"Feature","properties":{"nombre_parada":"Av. Las Torres No. 41C-92 Lado Norte","coordenada_x":"-74.796545","coordenada_y":"10.929863","nombre_ruta":"A2-1 Hipodromo","secuencia_parada":"46"},"geometry":{"type":"Point","coordinates":[-74.796545,10.929863]}},{"type":"Feature","properties":{"nombre_parada":"Av. Las Torres No. 43-76 Lado Norte","coordenada_x":"-74.798235","coordenada_y":"10.930047","nombre_ruta":"A2-1 Hipodromo","secuencia_parada":"47"},"geometry":{"type":"Point","coordinates":[-74.798235,10.930047]}},{"type":"Feature","properties":{"nombre_parada":"Av. Las Torres con Calle 45 Lado Norte","coordenada_x":"-74.799847","coordenada_y":"10.930197","nombre_ruta":"A2-1 Hipodromo","secuencia_parada":"48"},"geometry":{"type":"Point","coordinates":[-74.799847,10.930197]}},{"type":"Feature","properties":{"nombre_parada":"Av. Las Torres con Calle 45H Lado Norte","coordenada_x":"-74.801802","coordenada_y":"10.93041","nombre_ruta":"A2-1 Hipodromo","secuencia_parada":"49"},"geometry":{"type":"Point","coordinates":[-74.801802,10.93041]}},{"type":"Feature","properties":{"nombre_parada":"Carrera 1E No. 45H-41","coordenada_x":"-74.801897","coordenada_y":"10.93184","nombre_ruta":"A2-1 Hipodromo","secuencia_parada":"50"},"geometry":{"type":"Point","coordinates":[-74.801897,10.93184]}},{"type":"Feature","properties":{"nombre_parada":"Calle 45 con Carrera 1 Metrocentro","coordenada_x":"-74.799609","coordenada_y":"10.931795","nombre_ruta":"A2-1 Hipodromo","secuencia_parada":"51"},"geometry":{"type":"Point","coordinates":[-74.799609,10.931795]}},{"type":"Feature","properties":{"nombre_parada":"Carrera 24 Con Calle 63","coordenada_x":"-74.798931","coordenada_y":"10.921226","nombre_ruta":"A3-1 Villa Katanga","secuencia_parada":"1"},"geometry":{"type":"Point","coordinates":[-74.798931,10.921226]}},{"type":"Feature","properties":{"nombre_parada":"Carrera 24 con Calle 59 Lado Sur Soledad","coordenada_x":"-74.796022","coordenada_y":"10.92152","nombre_ruta":"A3-1 Villa Katanga","secuencia_parada":"2"},"geometry":{"type":"Point","coordinates":[-74.796022,10.92152]}},{"type":"Feature","properties":{"nombre_parada":"Carrera 24 con Calle 57D Lado Sur Soledad","coordenada_x":"-74.794565","coordenada_y":"10.921237","nombre_ruta":"A3-1 Villa Katanga","secuencia_parada":"3"},"geometry":{"type":"Point","coordinates":[-74.794565,10.921237]}},{"type":"Feature","properties":{"nombre_parada":"Carrera 24 con Calle 55B Lado Sur Soledad","coordenada_x":"-74.793112","coordenada_y":"10.920945","nombre_ruta":"A3-1 Villa Katanga","secuencia_parada":"4"},"geometry":{"type":"Point","coordinates":[-74.793112,10.920945]}},{"type":"Feature","properties":{"nombre_parada":"Carrera 24 con Calle 54 Lado Sur Soledad","coordenada_x":"-74.791322","coordenada_y":"10.921297","nombre_ruta":"A3-1 Villa Katanga","secuencia_parada":"5"},"geometry":{"type":"Point","coordinates":[-74.791322,10.921297]}},{"type":"Feature","properties":{"nombre_parada":"Carrera 24 con Calle 48 Lado Sur Soledad","coordenada_x":"-74.789708","coordenada_y":"10.92143","nombre_ruta":"A3-1 Villa Katanga","secuencia_parada":"6"},"geometry":{"type":"Point","coordinates":[-74.789708,10.92143]}},{"type":"Feature","properties":{"nombre_parada":"Carrera 24 con Calle 45A2 Lado Sur Soledad","coordenada_x":"-74.788557","coordenada_y":"10.921263","nombre_ruta":"A3-1 Villa Katanga","secuencia_parada":"7"},"geometry":{"type":"Point","coordinates":[-74.788557,10.921263]}},{"type":"Feature","properties":{"nombre_parada":"Calle 45 con Carrera 25 esq Lado Oriental Soledad","coordenada_x":"-74.787095","coordenada_y":"10.922547","nombre_ruta":"A3-1 Villa Katanga","secuencia_parada":"8"},"geometry":{"type":"Point","coordinates":[-74.787095,10.922547]}},{"type":"Feature","properties":{"nombre_parada":"Calle 45 con Carrera 26A Lado Oriental Soledad","coordenada_x":"-74.7863","coordenada_y":"10.923683","nombre_ruta":"A3-1 Villa Katanga","secuencia_parada":"9"},"geometry":{"type":"Point","coordinates":[-74.7863,10.923683]}},{"type":"Feature","properties":{"nombre_parada":"Calle 43 con Carrera 31 Lado Oriental Soledad","coordenada_x":"-74.784267","coordenada_y":"10.925265","nombre_ruta":"A3-1 Villa Katanga","secuencia_parada":"10"},"geometry":{"type":"Point","coordinates":[-74.784267,10.925265]}},{"type":"Feature","properties":{"nombre_parada":"Calle 43 con Carrera 37 Lado Oriental Soledad","coordenada_x":"-74.784229","coordenada_y":"10.927214","nombre_ruta":"A3-1 Villa Katanga","secuencia_parada":"11"},"geometry":{"type":"Point","coordinates":[-74.784229,10.927214]}},{"type":"Feature","properties":{"nombre_parada":"Calle 43 con Carrera 37 Lado Occidental Soledad","coordenada_x":"-74.784264","coordenada_y":"10.927029","nombre_ruta":"A3-1 Villa Katanga","secuencia_parada":"12"},"geometry":{"type":"Point","coordinates":[-74.784264,10.927029]}},{"type":"Feature","properties":{"nombre_parada":"Calle 43 con Carrera 32 Lado Occidental Soledad","coordenada_x":"-74.784264","coordenada_y":"10.925545","nombre_ruta":"A3-1 Villa Katanga","secuencia_parada":"13"},"geometry":{"type":"Point","coordinates":[-74.784264,10.925545]}},{"type":"Feature","properties":{"nombre_parada":"Calle 45 con Carrera 26 Lado Occidental Soledad","coordenada_x":"-74.787265","coordenada_y":"10.922297","nombre_ruta":"A3-1 Villa Katanga","secuencia_parada":"14"},"geometry":{"type":"Point","coordinates":[-74.787265,10.922297]}},{"type":"Feature","properties":{"nombre_parada":"Calle 45 con Carrera 24B Lado Occidental Soledad","coordenada_x":"-74.78763","coordenada_y":"10.921752","nombre_ruta":"A3-1 Villa Katanga","secuencia_parada":"15"},"geometry":{"type":"Point","coordinates":[-74.78763,10.921752]}},{"type":"Feature","properties":{"nombre_parada":"Carrera 24 con Calle 48 esq Lado Norte Soledad","coordenada_x":"-74.789715","coordenada_y":"10.921452","nombre_ruta":"A3-1 Villa Katanga","secuencia_parada":"16"},"geometry":{"type":"Point","coordinates":[-74.789715,10.921452]}},{"type":"Feature","properties":{"nombre_parada":"Carrera 24 con Calle 53 esq Lado Norte Soledad","coordenada_x":"-74.790858","coordenada_y":"10.92151","nombre_ruta":"A3-1 Villa Katanga","secuencia_parada":"17"},"geometry":{"type":"Point","coordinates":[-74.790858,10.92151]}},{"type":"Feature","properties":{"nombre_parada":"Carrera 24 con Calle 54C Lado Norte Soledad","coordenada_x":"-74.79225","coordenada_y":"10.921133","nombre_ruta":"A3-1 Villa Katanga","secuencia_parada":"18"},"geometry":{"type":"Point","coordinates":[-74.79225,10.921133]}},{"type":"Feature","properties":{"nombre_parada":"Calle 56 con Carrera 22C Soledad","coordenada_x":"-74.793343","coordenada_y":"10.919863","nombre_ruta":"A3-1 Villa Katanga","secuencia_parada":"19"},"geometry":{"type":"Point","coordinates":[-74.793343,10.919863]}},{"type":"Feature","properties":{"nombre_parada":"Calle 56 con Carrera 20 Soledad","coordenada_x":"-74.793335","coordenada_y":"10.918265","nombre_ruta":"A3-1 Villa Katanga","secuencia_parada":"20"},"geometry":{"type":"Point","coordinates":[-74.793335,10.918265]}},{"type":"Feature","properties":{"nombre_parada":"Carrera 18 No. 56-46 Soledad","coordenada_x":"-74.79393","coordenada_y":"10.917155","nombre_ruta":"A3-1 Villa Katanga","secuencia_parada":"21"},"geometry":{"type":"Point","coordinates":[-74.79393,10.917155]}},{"type":"Feature","properties":{"nombre_parada":"Carrera 18 No. 59-18 Soledad","coordenada_x":"-74.796177","coordenada_y":"10.917143","nombre_ruta":"A3-1 Villa Katanga","secuencia_parada":"22"},"geometry":{"type":"Point","coordinates":[-74.796177,10.917143]}},{"type":"Feature","properties":{"nombre_parada":"Carrera 18 No. 62-10 Soledad","coordenada_x":"-74.798233","coordenada_y":"10.917132","nombre_ruta":"A3-1 Villa Katanga","secuencia_parada":"23"},"geometry":{"type":"Point","coordinates":[-74.798233,10.917132]}},{"type":"Feature","properties":{"nombre_parada":"Carrera 24 Con Calle 63","coordenada_x":"-74.798931","coordenada_y":"10.921226","nombre_ruta":"A3-1 Villa Katanga","secuencia_parada":"24"},"geometry":{"type":"Point","coordinates":[-74.798931,10.921226]}},{"type":"Feature","properties":{"nombre_parada":"Portal de Soledad","coordenada_x":"-74.800165","coordenada_y":"10.907941","nombre_ruta":"A3-2 Soledad 2000","secuencia_parada":"1"},"geometry":{"type":"Point","coordinates":[-74.800165,10.907941]}},{"type":"Feature","properties":{"nombre_parada":"Carrera 14 con Calle 62 Soledad","coordenada_x":"-74.798492","coordenada_y":"10.909228","nombre_ruta":"A3-2 Soledad 2000","secuencia_parada":"2"},"geometry":{"type":"Point","coordinates":[-74.798492,10.909228]}},{"type":"Feature","properties":{"nombre_parada":"Carrera 14 con Calle 59 Ent. Nuevo Milenio Soledad","coordenada_x":"-74.795947","coordenada_y":"10.908877","nombre_ruta":"A3-2 Soledad 2000","secuencia_parada":"3"},"geometry":{"type":"Point","coordinates":[-74.795947,10.908877]}},{"type":"Feature","properties":{"nombre_parada":"Calle 59 con Carrera 12D Soledad","coordenada_x":"-74.795822","coordenada_y":"10.906929","nombre_ruta":"A3-2 Soledad 2000","secuencia_parada":"4"},"geometry":{"type":"Point","coordinates":[-74.795822,10.906929]}},{"type":"Feature","properties":{"nombre_parada":"Calle 59 No. 12-29 Soledad","coordenada_x":"-74.795685","coordenada_y":"10.905013","nombre_ruta":"A3-2 Soledad 2000","secuencia_parada":"5"},"geometry":{"type":"Point","coordinates":[-74.795685,10.905013]}},{"type":"Feature","properties":{"nombre_parada":"Carrera 12 con Calle 56 Lado Sur Soledad","coordenada_x":"-74.793891","coordenada_y":"10.904918","nombre_ruta":"A3-2 Soledad 2000","secuencia_parada":"6"},"geometry":{"type":"Point","coordinates":[-74.793891,10.904918]}},{"type":"Feature","properties":{"nombre_parada":"Carrera 13 con Calle 54 Lado Sur Soledad","coordenada_x":"-74.792297","coordenada_y":"10.906035","nombre_ruta":"A3-2 Soledad 2000","secuencia_parada":"7"},"geometry":{"type":"Point","coordinates":[-74.792297,10.906035]}},{"type":"Feature","properties":{"nombre_parada":"Calle 54 Con Carrera 11B Lado Occidental Soledad","coordenada_x":"-74.791623","coordenada_y":"10.905077","nombre_ruta":"A3-2 Soledad 2000","secuencia_parada":"8"},"geometry":{"type":"Point","coordinates":[-74.791623,10.905077]}},{"type":"Feature","properties":{"nombre_parada":"Carrera 11 con Calle 52 Siete Bocas Soledad","coordenada_x":"-74.789035","coordenada_y":"10.905058","nombre_ruta":"A3-2 Soledad 2000","secuencia_parada":"9"},"geometry":{"type":"Point","coordinates":[-74.789035,10.905058]}},{"type":"Feature","properties":{"nombre_parada":"Carrera 11 con Calle 49 Polideportivo Soledad 2000","coordenada_x":"-74.78593","coordenada_y":"10.905652","nombre_ruta":"A3-2 Soledad 2000","secuencia_parada":"10"},"geometry":{"type":"Point","coordinates":[-74.78593,10.905652]}},{"type":"Feature","properties":{"nombre_parada":"Carrera 11 con Calle 46 Soledad","coordenada_x":"-74.783343","coordenada_y":"10.906155","nombre_ruta":"A3-2 Soledad 2000","secuencia_parada":"11"},"geometry":{"type":"Point","coordinates":[-74.783343,10.906155]}},{"type":"Feature","properties":{"nombre_parada":"Carrera 11 con Calle 44 Col.Club de Leones Soledad","coordenada_x":"-74.781622","coordenada_y":"10.906417","nombre_ruta":"A3-2 Soledad 2000","secuencia_parada":"12"},"geometry":{"type":"Point","coordinates":[-74.781622,10.906417]}},{"type":"Feature","properties":{"nombre_parada":"Calle 43 con Carrera 13 Soledad","coordenada_x":"-74.780645","coordenada_y":"10.908305","nombre_ruta":"A3-2 Soledad 2000","secuencia_parada":"13"},"geometry":{"type":"Point","coordinates":[-74.780645,10.908305]}},{"type":"Feature","properties":{"nombre_parada":"Calle 41 No. 14-68 Barrio La Fe Soledad","coordenada_x":"-74.779402","coordenada_y":"10.910237","nombre_ruta":"A3-2 Soledad 2000","secuencia_parada":"14"},"geometry":{"type":"Point","coordinates":[-74.779402,10.910237]}},{"type":"Feature","properties":{"nombre_parada":"Carrera 15B con Calle 43C Soledad","coordenada_x":"-74.780897","coordenada_y":"10.911695","nombre_ruta":"A3-2 Soledad 2000","secuencia_parada":"15"},"geometry":{"type":"Point","coordinates":[-74.780897,10.911695]}},{"type":"Feature","properties":{"nombre_parada":"Carrera 15B con Calle 44D Colegio Tajamar Soledad","coordenada_x":"-74.782268","coordenada_y":"10.912152","nombre_ruta":"A3-2 Soledad 2000","secuencia_parada":"16"},"geometry":{"type":"Point","coordinates":[-74.782268,10.912152]}},{"type":"Feature","properties":{"nombre_parada":"Calle 45B con Carrera 12G Soledad","coordenada_x":"-74.782867","coordenada_y":"10.910737","nombre_ruta":"A3-2 Soledad 2000","secuencia_parada":"17"},"geometry":{"type":"Point","coordinates":[-74.782867,10.910737]}},{"type":"Feature","properties":{"nombre_parada":"Calle 45B con Carrera 14 Soledad","coordenada_x":"-74.782889","coordenada_y":"10.908963","nombre_ruta":"A3-2 Soledad 2000","secuencia_parada":"18"},"geometry":{"type":"Point","coordinates":[-74.782889,10.908963]}},{"type":"Feature","properties":{"nombre_parada":"Carrera 14 con Calle 47 Drog. Santa Lucia Soledad","coordenada_x":"-74.784507","coordenada_y":"10.908438","nombre_ruta":"A3-2 Soledad 2000","secuencia_parada":"19"},"geometry":{"type":"Point","coordinates":[-74.784507,10.908438]}},{"type":"Feature","properties":{"nombre_parada":"Carrera 14 con Calle 47A Conj. Res. Do√±a Soledad","coordenada_x":"-74.78601","coordenada_y":"10.908482","nombre_ruta":"A3-2 Soledad 2000","secuencia_parada":"20"},"geometry":{"type":"Point","coordinates":[-74.78601,10.908482]}},{"type":"Feature","properties":{"nombre_parada":"Carrera 14 con Calle 50 Soledad","coordenada_x":"-74.787952","coordenada_y":"10.908898","nombre_ruta":"A3-2 Soledad 2000","secuencia_parada":"21"},"geometry":{"type":"Point","coordinates":[-74.787952,10.908898]}},{"type":"Feature","properties":{"nombre_parada":"Carrera 14 con Calle 52 Soledad","coordenada_x":"-74.789332","coordenada_y":"10.908058","nombre_ruta":"A3-2 Soledad 2000","secuencia_parada":"22"},"geometry":{"type":"Point","coordinates":[-74.789332,10.908058]}},{"type":"Feature","properties":{"nombre_parada":"Carrera 13 con Calle 54 Lado Norte Soledad","coordenada_x":"-74.792329","coordenada_y":"10.906126","nombre_ruta":"A3-2 Soledad 2000","secuencia_parada":"23"},"geometry":{"type":"Point","coordinates":[-74.792329,10.906126]}},{"type":"Feature","properties":{"nombre_parada":"Carrera 12 con Calle 57 Lado Norte Soledad","coordenada_x":"-74.794149","coordenada_y":"10.904914","nombre_ruta":"A3-2 Soledad 2000","secuencia_parada":"24"},"geometry":{"type":"Point","coordinates":[-74.794149,10.904914]}},{"type":"Feature","properties":{"nombre_parada":"Carrera 12 con Calle 59A Lado Norte Soledad","coordenada_x":"-74.796171","coordenada_y":"10.904777","nombre_ruta":"A3-2 Soledad 2000","secuencia_parada":"25"},"geometry":{"type":"Point","coordinates":[-74.796171,10.904777]}},{"type":"Feature","properties":{"nombre_parada":"Carrera 12 con Calle 62 Lado Norte Soledad","coordenada_x":"-74.798383","coordenada_y":"10.904135","nombre_ruta":"A3-2 Soledad 2000","secuencia_parada":"26"},"geometry":{"type":"Point","coordinates":[-74.798383,10.904135]}},{"type":"Feature","properties":{"nombre_parada":"Carrera 12 con Calle 63A Lado Norte Soledad","coordenada_x":"-74.800747","coordenada_y":"10.903957","nombre_ruta":"A3-2 Soledad 2000","secuencia_parada":"27"},"geometry":{"type":"Point","coordinates":[-74.800747,10.903957]}},{"type":"Feature","properties":{"nombre_parada":"Calle 65 con Carrera 11C Terranova 2da Etapa","coordenada_x":"-74.801957","coordenada_y":"10.904042","nombre_ruta":"A3-2 Soledad 2000","secuencia_parada":"28"},"geometry":{"type":"Point","coordinates":[-74.801957,10.904042]}},{"type":"Feature","properties":{"nombre_parada":"Portal de Soledad","coordenada_x":"-74.800165","coordenada_y":"10.907941","nombre_ruta":"A3-2 Soledad 2000","secuencia_parada":"29"},"geometry":{"type":"Point","coordinates":[-74.800165,10.907941]}},{"type":"Feature","properties":{"nombre_parada":"Portal de Soledad","coordenada_x":"-74.800391","coordenada_y":"10.907631","nombre_ruta":"A3-3 Manuela Beltran","secuencia_parada":"1"},"geometry":{"type":"Point","coordinates":[-74.800391,10.907631]}},{"type":"Feature","properties":{"nombre_parada":"Carrera 14 con Calle 62 Soledad","coordenada_x":"-74.798492","coordenada_y":"10.909228","nombre_ruta":"A3-3 Manuela Beltran","secuencia_parada":"2"},"geometry":{"type":"Point","coordinates":[-74.798492,10.909228]}},{"type":"Feature","properties":{"nombre_parada":"Carrera 14 con Calle 59 Ent. Nuevo Milenio Soledad","coordenada_x":"-74.795947","coordenada_y":"10.908877","nombre_ruta":"A3-3 Manuela Beltran","secuencia_parada":"3"},"geometry":{"type":"Point","coordinates":[-74.795947,10.908877]}},{"type":"Feature","properties":{"nombre_parada":"Terminal de Transportes","coordenada_x":"-74.794045","coordenada_y":"10.908944","nombre_ruta":"A3-3 Manuela Beltran","secuencia_parada":"4"},"geometry":{"type":"Point","coordinates":[-74.794045,10.908944]}},{"type":"Feature","properties":{"nombre_parada":"Calle 54 con Carrera 14 El Percal Lado Occidental","coordenada_x":"-74.791893","coordenada_y":"10.906455","nombre_ruta":"A3-3 Manuela Beltran","secuencia_parada":"5"},"geometry":{"type":"Point","coordinates":[-74.791893,10.906455]}},{"type":"Feature","properties":{"nombre_parada":"Calle 54 Con Carrera 11B Lado Occidental Soledad","coordenada_x":"-74.791623","coordenada_y":"10.905077","nombre_ruta":"A3-3 Manuela Beltran","secuencia_parada":"6"},"geometry":{"type":"Point","coordinates":[-74.791623,10.905077]}},{"type":"Feature","properties":{"nombre_parada":"Carrera 11 con Calle 52 Siete Bocas Soledad","coordenada_x":"-74.789035","coordenada_y":"10.905058","nombre_ruta":"A3-3 Manuela Beltran","secuencia_parada":"7"},"geometry":{"type":"Point","coordinates":[-74.789035,10.905058]}},{"type":"Feature","properties":{"nombre_parada":"Carrera 11 con Calle 49 Polideportivo Soledad 2000","coordenada_x":"-74.78593","coordenada_y":"10.905652","nombre_ruta":"A3-3 Manuela Beltran","secuencia_parada":"8"},"geometry":{"type":"Point","coordinates":[-74.78593,10.905652]}},{"type":"Feature","properties":{"nombre_parada":"Carrera 11 con Calle 46 Soledad","coordenada_x":"-74.783343","coordenada_y":"10.906155","nombre_ruta":"A3-3 Manuela Beltran","secuencia_parada":"9"},"geometry":{"type":"Point","coordinates":[-74.783343,10.906155]}},{"type":"Feature","properties":{"nombre_parada":"Carrera 11 con Calle 44 Col.Club de Leones Soledad","coordenada_x":"-74.781622","coordenada_y":"10.906417","nombre_ruta":"A3-3 Manuela Beltran","secuencia_parada":"10"},"geometry":{"type":"Point","coordinates":[-74.781622,10.906417]}},{"type":"Feature","properties":{"nombre_parada":"Calle 47 No. 5B-16 Lado Oriental Soledad","coordenada_x":"-74.782847","coordenada_y":"10.899358","nombre_ruta":"A3-3 Manuela Beltran","secuencia_parada":"11"},"geometry":{"type":"Point","coordinates":[-74.782847,10.899358]}},{"type":"Feature","properties":{"nombre_parada":"Calle 47 No. 6A-22 Lado Oriental Soledad","coordenada_x":"-74.783167","coordenada_y":"10.900828","nombre_ruta":"A3-3 Manuela Beltran","secuencia_parada":"12"},"geometry":{"type":"Point","coordinates":[-74.783167,10.900828]}},{"type":"Feature","properties":{"nombre_parada":"Carrera 6C No. 47C-08 Lado Norte Soledad","coordenada_x":"-74.784192","coordenada_y":"10.90098","nombre_ruta":"A3-3 Manuela Beltran","secuencia_parada":"13"},"geometry":{"type":"Point","coordinates":[-74.784192,10.90098]}},{"type":"Feature","properties":{"nombre_parada":"Calle 49 No. 6E-22 Lado Nororiental Soledad","coordenada_x":"-74.785527","coordenada_y":"10.9017","nombre_ruta":"A3-3 Manuela Beltran","secuencia_parada":"14"},"geometry":{"type":"Point","coordinates":[-74.785527,10.9017]}},{"type":"Feature","properties":{"nombre_parada":"Carrera 14 con Calle 50 Soledad","coordenada_x":"-74.787952","coordenada_y":"10.908898","nombre_ruta":"A3-3 Manuela Beltran","secuencia_parada":"15"},"geometry":{"type":"Point","coordinates":[-74.787952,10.908898]}},{"type":"Feature","properties":{"nombre_parada":"Carrera 14 con Calle 52 Soledad","coordenada_x":"-74.789332","coordenada_y":"10.908058","nombre_ruta":"A3-3 Manuela Beltran","secuencia_parada":"16"},"geometry":{"type":"Point","coordinates":[-74.789332,10.908058]}},{"type":"Feature","properties":{"nombre_parada":"Carrera 13 con Calle 54 Lado Norte Soledad","coordenada_x":"-74.792329","coordenada_y":"10.906126","nombre_ruta":"A3-3 Manuela Beltran","secuencia_parada":"17"},"geometry":{"type":"Point","coordinates":[-74.792329,10.906126]}},{"type":"Feature","properties":{"nombre_parada":"Carrera 12 con Calle 57 Lado Norte Soledad","coordenada_x":"-74.794149","coordenada_y":"10.904914","nombre_ruta":"A3-3 Manuela Beltran","secuencia_parada":"18"},"geometry":{"type":"Point","coordinates":[-74.794149,10.904914]}},{"type":"Feature","properties":{"nombre_parada":"Carrera 12 con Calle 59A Lado Norte Soledad","coordenada_x":"-74.796171","coordenada_y":"10.904777","nombre_ruta":"A3-3 Manuela Beltran","secuencia_parada":"19"},"geometry":{"type":"Point","coordinates":[-74.796171,10.904777]}},{"type":"Feature","properties":{"nombre_parada":"Carrera 12 con Calle 62 Lado Norte Soledad","coordenada_x":"-74.798383","coordenada_y":"10.904135","nombre_ruta":"A3-3 Manuela Beltran","secuencia_parada":"20"},"geometry":{"type":"Point","coordinates":[-74.798383,10.904135]}},{"type":"Feature","properties":{"nombre_parada":"Carrera 12 con Calle 63A Lado Norte Soledad","coordenada_x":"-74.800747","coordenada_y":"10.903957","nombre_ruta":"A3-3 Manuela Beltran","secuencia_parada":"21"},"geometry":{"type":"Point","coordinates":[-74.800747,10.903957]}},{"type":"Feature","properties":{"nombre_parada":"Calle 65 con Carrera 11C Terranova 2da Etapa","coordenada_x":"-74.801957","coordenada_y":"10.904042","nombre_ruta":"A3-3 Manuela Beltran","secuencia_parada":"22"},"geometry":{"type":"Point","coordinates":[-74.801957,10.904042]}},{"type":"Feature","properties":{"nombre_parada":"Portal de Soledad","coordenada_x":"-74.800391","coordenada_y":"10.907631","nombre_ruta":"A3-3 Manuela Beltran","secuencia_parada":"23"},"geometry":{"type":"Point","coordinates":[-74.800391,10.907631]}},{"type":"Feature","properties":{"nombre_parada":"Portal de Soledad","coordenada_x":"-74.800586","coordenada_y":"10.907377","nombre_ruta":"A3-4 Villa Sol","secuencia_parada":"1"},"geometry":{"type":"Point","coordinates":[-74.800586,10.907377]}},{"type":"Feature","properties":{"nombre_parada":"Centro Comercial Nuestro Atlantico","coordenada_x":"-74.801316","coordenada_y":"10.905385","nombre_ruta":"A3-4 Villa Sol","secuencia_parada":"2"},"geometry":{"type":"Point","coordinates":[-74.801316,10.905385]}},{"type":"Feature","properties":{"nombre_parada":"Calle 65 con Carrera 12 Ciudad Transmetro Lado Occ","coordenada_x":"-74.802113","coordenada_y":"10.904125","nombre_ruta":"A3-4 Villa Sol","secuencia_parada":"3"},"geometry":{"type":"Point","coordinates":[-74.802113,10.904125]}},{"type":"Feature","properties":{"nombre_parada":"Calle 65 con Carrera 8 Los Loteros Lado Occidental","coordenada_x":"-74.802702","coordenada_y":"10.901335","nombre_ruta":"A3-4 Villa Sol","secuencia_parada":"4"},"geometry":{"type":"Point","coordinates":[-74.802702,10.901335]}},{"type":"Feature","properties":{"nombre_parada":"Calle 65 Ciudad Camelot Lado Occidental","coordenada_x":"-74.803115","coordenada_y":"10.899415","nombre_ruta":"A3-4 Villa Sol","secuencia_parada":"5"},"geometry":{"type":"Point","coordinates":[-74.803115,10.899415]}},{"type":"Feature","properties":{"nombre_parada":"Calle 65 La Candelaria Lado Occidental","coordenada_x":"-74.803785","coordenada_y":"10.895393","nombre_ruta":"A3-4 Villa Sol","secuencia_parada":"6"},"geometry":{"type":"Point","coordinates":[-74.803785,10.895393]}},{"type":"Feature","properties":{"nombre_parada":"Calle 65 con Carrera 5 La Central Lado Occidental","coordenada_x":"-74.80419","coordenada_y":"10.891485","nombre_ruta":"A3-4 Villa Sol","secuencia_parada":"7"},"geometry":{"type":"Point","coordinates":[-74.80419,10.891485]}},{"type":"Feature","properties":{"nombre_parada":"Calle 65 Gran Central de Abastos del Caribe","coordenada_x":"-74.803852","coordenada_y":"10.887832","nombre_ruta":"A3-4 Villa Sol","secuencia_parada":"8"},"geometry":{"type":"Point","coordinates":[-74.803852,10.887832]}},{"type":"Feature","properties":{"nombre_parada":"Diagonal 56 Las Cometas Lado Sur","coordenada_x":"-74.799828","coordenada_y":"10.890973","nombre_ruta":"A3-4 Villa Sol","secuencia_parada":"9"},"geometry":{"type":"Point","coordinates":[-74.799828,10.890973]}},{"type":"Feature","properties":{"nombre_parada":"Diagonal 56 Mega Colegio Lado Sur","coordenada_x":"-74.797293","coordenada_y":"10.892458","nombre_ruta":"A3-4 Villa Sol","secuencia_parada":"10"},"geometry":{"type":"Point","coordinates":[-74.797293,10.892458]}},{"type":"Feature","properties":{"nombre_parada":"Diagonal 56 Villa Maria 1ra Etapa Lado Sur","coordenada_x":"-74.795803","coordenada_y":"10.89324","nombre_ruta":"A3-4 Villa Sol","secuencia_parada":"11"},"geometry":{"type":"Point","coordinates":[-74.795803,10.89324]}},{"type":"Feature","properties":{"nombre_parada":"Diagonal 56 Villa Maria 2da Etapa Lado Sur","coordenada_x":"-74.794525","coordenada_y":"10.894047","nombre_ruta":"A3-4 Villa Sol","secuencia_parada":"12"},"geometry":{"type":"Point","coordinates":[-74.794525,10.894047]}},{"type":"Feature","properties":{"nombre_parada":"Calle 57 con Carrera 3 Las Cuatro Villas","coordenada_x":"-74.793272","coordenada_y":"10.89342","nombre_ruta":"A3-4 Villa Sol","secuencia_parada":"13"},"geometry":{"type":"Point","coordinates":[-74.793272,10.89342]}},{"type":"Feature","properties":{"nombre_parada":"Carrera 3 No. 56C-21 Movimiento Misionero Lado Sur","coordenada_x":"-74.792117","coordenada_y":"10.892867","nombre_ruta":"A3-4 Villa Sol","secuencia_parada":"14"},"geometry":{"type":"Point","coordinates":[-74.792117,10.892867]}},{"type":"Feature","properties":{"nombre_parada":"Carrera 3 No. 54C-03 Tienda El Milagro Lado Sur","coordenada_x":"-74.790272","coordenada_y":"10.892803","nombre_ruta":"A3-4 Villa Sol","secuencia_parada":"15"},"geometry":{"type":"Point","coordinates":[-74.790272,10.892803]}},{"type":"Feature","properties":{"nombre_parada":"Calle 54B con Transversal 2D10 Soledad","coordenada_x":"-74.789497","coordenada_y":"10.891348","nombre_ruta":"A3-4 Villa Sol","secuencia_parada":"16"},"geometry":{"type":"Point","coordinates":[-74.789497,10.891348]}},{"type":"Feature","properties":{"nombre_parada":"Calle 54B con Carrera 2F¬†Iglesia Lado Oriente","coordenada_x":"-74.7896","coordenada_y":"10.891917","nombre_ruta":"A3-4 Villa Sol","secuencia_parada":"17"},"geometry":{"type":"Point","coordinates":[-74.7896,10.891917]}},{"type":"Feature","properties":{"nombre_parada":"Carrera 3 No. 55-16 Lado Norte Soledad","coordenada_x":"-74.79065","coordenada_y":"10.892782","nombre_ruta":"A3-4 Villa Sol","secuencia_parada":"18"},"geometry":{"type":"Point","coordinates":[-74.79065,10.892782]}},{"type":"Feature","properties":{"nombre_parada":"Carrera 3 No. 56-142 Lado Norte Soledad","coordenada_x":"-74.792595","coordenada_y":"10.892948","nombre_ruta":"A3-4 Villa Sol","secuencia_parada":"19"},"geometry":{"type":"Point","coordinates":[-74.792595,10.892948]}},{"type":"Feature","properties":{"nombre_parada":"Diagonal 56 Villa Karla Lado Sur","coordenada_x":"-74.792565","coordenada_y":"10.895408","nombre_ruta":"A3-4 Villa Sol","secuencia_parada":"20"},"geometry":{"type":"Point","coordinates":[-74.792565,10.895408]}},{"type":"Feature","properties":{"nombre_parada":"Diagonal 56 Villa Karla Lado Norte","coordenada_x":"-74.791992","coordenada_y":"10.895937","nombre_ruta":"A3-4 Villa Sol","secuencia_parada":"21"},"geometry":{"type":"Point","coordinates":[-74.791992,10.895937]}},{"type":"Feature","properties":{"nombre_parada":"Diagonal 56 Villa Maria 2da Etapa Lado Norte","coordenada_x":"-74.794233","coordenada_y":"10.894315","nombre_ruta":"A3-4 Villa Sol","secuencia_parada":"22"},"geometry":{"type":"Point","coordinates":[-74.794233,10.894315]}},{"type":"Feature","properties":{"nombre_parada":"Diagonal 56 Villa Maria 1ra Etapa Lado Norte","coordenada_x":"-74.79599","coordenada_y":"10.893168","nombre_ruta":"A3-4 Villa Sol","secuencia_parada":"23"},"geometry":{"type":"Point","coordinates":[-74.79599,10.893168]}},{"type":"Feature","properties":{"nombre_parada":"Diagonal 56 Mega Colegio Lado Norte","coordenada_x":"-74.797202","coordenada_y":"10.89253","nombre_ruta":"A3-4 Villa Sol","secuencia_parada":"24"},"geometry":{"type":"Point","coordinates":[-74.797202,10.89253]}},{"type":"Feature","properties":{"nombre_parada":"Diagonal 56 Las Cometas Lado Norte","coordenada_x":"-74.799928","coordenada_y":"10.890955","nombre_ruta":"A3-4 Villa Sol","secuencia_parada":"25"},"geometry":{"type":"Point","coordinates":[-74.799928,10.890955]}},{"type":"Feature","properties":{"nombre_parada":"Calle 65 con Diagonal 56 EDS La Inmaculada Soledad","coordenada_x":"-74.803507","coordenada_y":"10.889405","nombre_ruta":"A3-4 Villa Sol","secuencia_parada":"26"},"geometry":{"type":"Point","coordinates":[-74.803507,10.889405]}},{"type":"Feature","properties":{"nombre_parada":"Calle 65 Villa Linda Av. Murillo Soledad","coordenada_x":"-74.804013","coordenada_y":"10.891925","nombre_ruta":"A3-4 Villa Sol","secuencia_parada":"27"},"geometry":{"type":"Point","coordinates":[-74.804013,10.891925]}},{"type":"Feature","properties":{"nombre_parada":"Calle 65 La Candelaria Lado Oriental","coordenada_x":"-74.804009","coordenada_y":"10.893602","nombre_ruta":"A3-4 Villa Sol","secuencia_parada":"28"},"geometry":{"type":"Point","coordinates":[-74.804009,10.893602]}},{"type":"Feature","properties":{"nombre_parada":"Calle 65 Villas del Portal 2 Lado Oriental","coordenada_x":"-74.803067","coordenada_y":"10.8988","nombre_ruta":"A3-4 Villa Sol","secuencia_parada":"29"},"geometry":{"type":"Point","coordinates":[-74.803067,10.8988]}},{"type":"Feature","properties":{"nombre_parada":"Calle 65 con Carrera 8 Los Loteros Lado Oriental","coordenada_x":"-74.802592","coordenada_y":"10.900938","nombre_ruta":"A3-4 Villa Sol","secuencia_parada":"30"},"geometry":{"type":"Point","coordinates":[-74.802592,10.900938]}},{"type":"Feature","properties":{"nombre_parada":"Calle 65 con Carrera 11C Terranova 2da Etapa","coordenada_x":"-74.801957","coordenada_y":"10.904042","nombre_ruta":"A3-4 Villa Sol","secuencia_parada":"31"},"geometry":{"type":"Point","coordinates":[-74.801957,10.904042]}},{"type":"Feature","properties":{"nombre_parada":"Portal de Soledad","coordenada_x":"-74.800586","coordenada_y":"10.907377","nombre_ruta":"A3-4 Villa Sol","secuencia_parada":"32"},"geometry":{"type":"Point","coordinates":[-74.800586,10.907377]}},{"type":"Feature","properties":{"nombre_parada":"Portal de Soledad","coordenada_x":"-74.800586","coordenada_y":"10.907377","nombre_ruta":"A3-40 Villa Sol","secuencia_parada":"1"},"geometry":{"type":"Point","coordinates":[-74.800586,10.907377]}},{"type":"Feature","properties":{"nombre_parada":"Centro Comercial Nuestro Atlantico","coordenada_x":"-74.801316","coordenada_y":"10.905385","nombre_ruta":"A3-40 Villa Sol","secuencia_parada":"2"},"geometry":{"type":"Point","coordinates":[-74.801316,10.905385]}},{"type":"Feature","properties":{"nombre_parada":"Calle 65 con Carrera 12 Ciudad Transmetro Lado Occ","coordenada_x":"-74.802113","coordenada_y":"10.904125","nombre_ruta":"A3-40 Villa Sol","secuencia_parada":"3"},"geometry":{"type":"Point","coordinates":[-74.802113,10.904125]}},{"type":"Feature","properties":{"nombre_parada":"Calle 65 con Carrera 8 Los Loteros Lado Occidental","coordenada_x":"-74.802702","coordenada_y":"10.901335","nombre_ruta":"A3-40 Villa Sol","secuencia_parada":"4"},"geometry":{"type":"Point","coordinates":[-74.802702,10.901335]}},{"type":"Feature","properties":{"nombre_parada":"Calle 65 Ciudad Camelot Lado Occidental","coordenada_x":"-74.803115","coordenada_y":"10.899415","nombre_ruta":"A3-40 Villa Sol","secuencia_parada":"5"},"geometry":{"type":"Point","coordinates":[-74.803115,10.899415]}},{"type":"Feature","properties":{"nombre_parada":"Calle 65 La Candelaria Lado Occidental","coordenada_x":"-74.803785","coordenada_y":"10.895393","nombre_ruta":"A3-40 Villa Sol","secuencia_parada":"6"},"geometry":{"type":"Point","coordinates":[-74.803785,10.895393]}},{"type":"Feature","properties":{"nombre_parada":"Calle 65 con Carrera 5 La Central Lado Occidental","coordenada_x":"-74.80419","coordenada_y":"10.891485","nombre_ruta":"A3-40 Villa Sol","secuencia_parada":"7"},"geometry":{"type":"Point","coordinates":[-74.80419,10.891485]}},{"type":"Feature","properties":{"nombre_parada":"Calle 65 Gran Central de Abastos del Caribe","coordenada_x":"-74.803852","coordenada_y":"10.887832","nombre_ruta":"A3-40 Villa Sol","secuencia_parada":"8"},"geometry":{"type":"Point","coordinates":[-74.803852,10.887832]}},{"type":"Feature","properties":{"nombre_parada":"Diagonal 56 Las Cometas Lado Sur","coordenada_x":"-74.799828","coordenada_y":"10.890973","nombre_ruta":"A3-40 Villa Sol","secuencia_parada":"9"},"geometry":{"type":"Point","coordinates":[-74.799828,10.890973]}},{"type":"Feature","properties":{"nombre_parada":"Diagonal 56 Mega Colegio Lado Sur","coordenada_x":"-74.797293","coordenada_y":"10.892458","nombre_ruta":"A3-40 Villa Sol","secuencia_parada":"10"},"geometry":{"type":"Point","coordinates":[-74.797293,10.892458]}},{"type":"Feature","properties":{"nombre_parada":"Diagonal 56 Villa Maria 1ra Etapa Lado Sur","coordenada_x":"-74.795803","coordenada_y":"10.89324","nombre_ruta":"A3-40 Villa Sol","secuencia_parada":"11"},"geometry":{"type":"Point","coordinates":[-74.795803,10.89324]}},{"type":"Feature","properties":{"nombre_parada":"Diagonal 56 Villa Maria 2da Etapa Lado Sur","coordenada_x":"-74.794525","coordenada_y":"10.894047","nombre_ruta":"A3-40 Villa Sol","secuencia_parada":"12"},"geometry":{"type":"Point","coordinates":[-74.794525,10.894047]}},{"type":"Feature","properties":{"nombre_parada":"Calle 57 con Carrera 3 Las Cuatro Villas","coordenada_x":"-74.793272","coordenada_y":"10.89342","nombre_ruta":"A3-40 Villa Sol","secuencia_parada":"13"},"geometry":{"type":"Point","coordinates":[-74.793272,10.89342]}},{"type":"Feature","properties":{"nombre_parada":"Carrera 3 No. 56C-21 Movimiento Misionero Lado Sur","coordenada_x":"-74.792117","coordenada_y":"10.892867","nombre_ruta":"A3-40 Villa Sol","secuencia_parada":"14"},"geometry":{"type":"Point","coordinates":[-74.792117,10.892867]}},{"type":"Feature","properties":{"nombre_parada":"Carrera 3 No. 54C-03 Tienda El Milagro Lado Sur","coordenada_x":"-74.790272","coordenada_y":"10.892803","nombre_ruta":"A3-40 Villa Sol","secuencia_parada":"15"},"geometry":{"type":"Point","coordinates":[-74.790272,10.892803]}},{"type":"Feature","properties":{"nombre_parada":"Calle 54B con Transversal 2D10 Soledad","coordenada_x":"-74.789497","coordenada_y":"10.891348","nombre_ruta":"A3-40 Villa Sol","secuencia_parada":"16"},"geometry":{"type":"Point","coordinates":[-74.789497,10.891348]}},{"type":"Feature","properties":{"nombre_parada":"Calle 54B con Carrera 2F¬†Iglesia Lado Oriente","coordenada_x":"-74.7896","coordenada_y":"10.891917","nombre_ruta":"A3-40 Villa Sol","secuencia_parada":"17"},"geometry":{"type":"Point","coordinates":[-74.7896,10.891917]}},{"type":"Feature","properties":{"nombre_parada":"Carrera 3 No. 55-16 Lado Norte Soledad","coordenada_x":"-74.79065","coordenada_y":"10.892782","nombre_ruta":"A3-40 Villa Sol","secuencia_parada":"18"},"geometry":{"type":"Point","coordinates":[-74.79065,10.892782]}},{"type":"Feature","properties":{"nombre_parada":"Carrera 3 No. 56-142 Lado Norte Soledad","coordenada_x":"-74.792595","coordenada_y":"10.892948","nombre_ruta":"A3-40 Villa Sol","secuencia_parada":"19"},"geometry":{"type":"Point","coordinates":[-74.792595,10.892948]}},{"type":"Feature","properties":{"nombre_parada":"Diagonal 56 Villa Maria 2da Etapa Lado Norte","coordenada_x":"-74.794233","coordenada_y":"10.894315","nombre_ruta":"A3-40 Villa Sol","secuencia_parada":"20"},"geometry":{"type":"Point","coordinates":[-74.794233,10.894315]}},{"type":"Feature","properties":{"nombre_parada":"Diagonal 56 Villa Maria 1ra Etapa Lado Norte","coordenada_x":"-74.79599","coordenada_y":"10.893168","nombre_ruta":"A3-40 Villa Sol","secuencia_parada":"21"},"geometry":{"type":"Point","coordinates":[-74.79599,10.893168]}},{"type":"Feature","properties":{"nombre_parada":"Diagonal 56 Mega Colegio Lado Norte","coordenada_x":"-74.797202","coordenada_y":"10.89253","nombre_ruta":"A3-40 Villa Sol","secuencia_parada":"22"},"geometry":{"type":"Point","coordinates":[-74.797202,10.89253]}},{"type":"Feature","properties":{"nombre_parada":"Diagonal 56 Las Cometas Lado Norte","coordenada_x":"-74.799928","coordenada_y":"10.890955","nombre_ruta":"A3-40 Villa Sol","secuencia_parada":"23"},"geometry":{"type":"Point","coordinates":[-74.799928,10.890955]}},{"type":"Feature","properties":{"nombre_parada":"Calle 65 con Diagonal 56 EDS La Inmaculada Soledad","coordenada_x":"-74.803507","coordenada_y":"10.889405","nombre_ruta":"A3-40 Villa Sol","secuencia_parada":"24"},"geometry":{"type":"Point","coordinates":[-74.803507,10.889405]}},{"type":"Feature","properties":{"nombre_parada":"Calle 65 Villa Linda Av. Murillo Soledad","coordenada_x":"-74.804013","coordenada_y":"10.891925","nombre_ruta":"A3-40 Villa Sol","secuencia_parada":"25"},"geometry":{"type":"Point","coordinates":[-74.804013,10.891925]}},{"type":"Feature","properties":{"nombre_parada":"Calle 65 La Candelaria Lado Oriental","coordenada_x":"-74.804009","coordenada_y":"10.893602","nombre_ruta":"A3-40 Villa Sol","secuencia_parada":"26"},"geometry":{"type":"Point","coordinates":[-74.804009,10.893602]}},{"type":"Feature","properties":{"nombre_parada":"Calle 65 Villas del Portal 2 Lado Oriental","coordenada_x":"-74.803067","coordenada_y":"10.8988","nombre_ruta":"A3-40 Villa Sol","secuencia_parada":"27"},"geometry":{"type":"Point","coordinates":[-74.803067,10.8988]}},{"type":"Feature","properties":{"nombre_parada":"Calle 65 con Carrera 8 Los Loteros Lado Oriental","coordenada_x":"-74.802592","coordenada_y":"10.900938","nombre_ruta":"A3-40 Villa Sol","secuencia_parada":"28"},"geometry":{"type":"Point","coordinates":[-74.802592,10.900938]}},{"type":"Feature","properties":{"nombre_parada":"Calle 65 con Carrera 11C Terranova 2da Etapa","coordenada_x":"-74.801957","coordenada_y":"10.904042","nombre_ruta":"A3-40 Villa Sol","secuencia_parada":"29"},"geometry":{"type":"Point","coordinates":[-74.801957,10.904042]}},{"type":"Feature","properties":{"nombre_parada":"Portal de Soledad","coordenada_x":"-74.800586","coordenada_y":"10.907377","nombre_ruta":"A3-40 Villa Sol","secuencia_parada":"30"},"geometry":{"type":"Point","coordinates":[-74.800586,10.907377]}},{"type":"Feature","properties":{"nombre_parada":"Portal de Soledad","coordenada_x":"-74.800586","coordenada_y":"10.907377","nombre_ruta":"A3-41 Villa Karla","secuencia_parada":"1"},"geometry":{"type":"Point","coordinates":[-74.800586,10.907377]}},{"type":"Feature","properties":{"nombre_parada":"Centro Comercial Nuestro Atlantico","coordenada_x":"-74.801316","coordenada_y":"10.905385","nombre_ruta":"A3-41 Villa Karla","secuencia_parada":"2"},"geometry":{"type":"Point","coordinates":[-74.801316,10.905385]}},{"type":"Feature","properties":{"nombre_parada":"Calle 65 con Carrera 12 Ciudad Transmetro Lado Occ","coordenada_x":"-74.802113","coordenada_y":"10.904125","nombre_ruta":"A3-41 Villa Karla","secuencia_parada":"3"},"geometry":{"type":"Point","coordinates":[-74.802113,10.904125]}},{"type":"Feature","properties":{"nombre_parada":"Calle 65 con Carrera 8 Los Loteros Lado Occidental","coordenada_x":"-74.802702","coordenada_y":"10.901335","nombre_ruta":"A3-41 Villa Karla","secuencia_parada":"4"},"geometry":{"type":"Point","coordinates":[-74.802702,10.901335]}},{"type":"Feature","properties":{"nombre_parada":"Calle 65 Ciudad Camelot Lado Occidental","coordenada_x":"-74.803115","coordenada_y":"10.899415","nombre_ruta":"A3-41 Villa Karla","secuencia_parada":"5"},"geometry":{"type":"Point","coordinates":[-74.803115,10.899415]}},{"type":"Feature","properties":{"nombre_parada":"Calle 65 La Candelaria Lado Occidental","coordenada_x":"-74.803785","coordenada_y":"10.895393","nombre_ruta":"A3-41 Villa Karla","secuencia_parada":"6"},"geometry":{"type":"Point","coordinates":[-74.803785,10.895393]}},{"type":"Feature","properties":{"nombre_parada":"Calle 65 con Carrera 5 La Central Lado Occidental","coordenada_x":"-74.80419","coordenada_y":"10.891485","nombre_ruta":"A3-41 Villa Karla","secuencia_parada":"7"},"geometry":{"type":"Point","coordinates":[-74.80419,10.891485]}},{"type":"Feature","properties":{"nombre_parada":"Calle 65 Gran Central de Abastos del Caribe","coordenada_x":"-74.803852","coordenada_y":"10.887832","nombre_ruta":"A3-41 Villa Karla","secuencia_parada":"8"},"geometry":{"type":"Point","coordinates":[-74.803852,10.887832]}},{"type":"Feature","properties":{"nombre_parada":"Diagonal 56 Las Cometas Lado Sur","coordenada_x":"-74.799828","coordenada_y":"10.890973","nombre_ruta":"A3-41 Villa Karla","secuencia_parada":"9"},"geometry":{"type":"Point","coordinates":[-74.799828,10.890973]}},{"type":"Feature","properties":{"nombre_parada":"Diagonal 56 Mega Colegio Lado Sur","coordenada_x":"-74.797293","coordenada_y":"10.892458","nombre_ruta":"A3-41 Villa Karla","secuencia_parada":"10"},"geometry":{"type":"Point","coordinates":[-74.797293,10.892458]}},{"type":"Feature","properties":{"nombre_parada":"Diagonal 56 Villa Maria 1ra Etapa Lado Sur","coordenada_x":"-74.795803","coordenada_y":"10.89324","nombre_ruta":"A3-41 Villa Karla","secuencia_parada":"11"},"geometry":{"type":"Point","coordinates":[-74.795803,10.89324]}},{"type":"Feature","properties":{"nombre_parada":"Diagonal 56 Villa Maria 2da Etapa Lado Sur","coordenada_x":"-74.794525","coordenada_y":"10.894047","nombre_ruta":"A3-41 Villa Karla","secuencia_parada":"12"},"geometry":{"type":"Point","coordinates":[-74.794525,10.894047]}},{"type":"Feature","properties":{"nombre_parada":"Diagonal 56 Villa Karla Lado Sur","coordenada_x":"-74.792565","coordenada_y":"10.895408","nombre_ruta":"A3-41 Villa Karla","secuencia_parada":"13"},"geometry":{"type":"Point","coordinates":[-74.792565,10.895408]}},{"type":"Feature","properties":{"nombre_parada":"Diagonal 56 Villa Karla Lado Norte","coordenada_x":"-74.791992","coordenada_y":"10.895937","nombre_ruta":"A3-41 Villa Karla","secuencia_parada":"14"},"geometry":{"type":"Point","coordinates":[-74.791992,10.895937]}},{"type":"Feature","properties":{"nombre_parada":"Diagonal 56 Villa Maria 2da Etapa Lado Norte","coordenada_x":"-74.794233","coordenada_y":"10.894315","nombre_ruta":"A3-41 Villa Karla","secuencia_parada":"15"},"geometry":{"type":"Point","coordinates":[-74.794233,10.894315]}},{"type":"Feature","properties":{"nombre_parada":"Diagonal 56 Villa Maria 1ra Etapa Lado Norte","coordenada_x":"-74.79599","coordenada_y":"10.893168","nombre_ruta":"A3-41 Villa Karla","secuencia_parada":"16"},"geometry":{"type":"Point","coordinates":[-74.79599,10.893168]}},{"type":"Feature","properties":{"nombre_parada":"Diagonal 56 Mega Colegio Lado Norte","coordenada_x":"-74.797202","coordenada_y":"10.89253","nombre_ruta":"A3-41 Villa Karla","secuencia_parada":"17"},"geometry":{"type":"Point","coordinates":[-74.797202,10.89253]}},{"type":"Feature","properties":{"nombre_parada":"Diagonal 56 Las Cometas Lado Norte","coordenada_x":"-74.799928","coordenada_y":"10.890955","nombre_ruta":"A3-41 Villa Karla","secuencia_parada":"18"},"geometry":{"type":"Point","coordinates":[-74.799928,10.890955]}},{"type":"Feature","properties":{"nombre_parada":"Calle 65 con Diagonal 56 EDS La Inmaculada Soledad","coordenada_x":"-74.803507","coordenada_y":"10.889405","nombre_ruta":"A3-41 Villa Karla","secuencia_parada":"19"},"geometry":{"type":"Point","coordinates":[-74.803507,10.889405]}},{"type":"Feature","properties":{"nombre_parada":"Calle 65 Villa Linda Av. Murillo Soledad","coordenada_x":"-74.804013","coordenada_y":"10.891925","nombre_ruta":"A3-41 Villa Karla","secuencia_parada":"20"},"geometry":{"type":"Point","coordinates":[-74.804013,10.891925]}},{"type":"Feature","properties":{"nombre_parada":"Calle 65 La Candelaria Lado Oriental","coordenada_x":"-74.804009","coordenada_y":"10.893602","nombre_ruta":"A3-41 Villa Karla","secuencia_parada":"21"},"geometry":{"type":"Point","coordinates":[-74.804009,10.893602]}},{"type":"Feature","properties":{"nombre_parada":"Calle 65 Villas del Portal 2 Lado Oriental","coordenada_x":"-74.803067","coordenada_y":"10.8988","nombre_ruta":"A3-41 Villa Karla","secuencia_parada":"22"},"geometry":{"type":"Point","coordinates":[-74.803067,10.8988]}},{"type":"Feature","properties":{"nombre_parada":"Calle 65 con Carrera 8 Los Loteros Lado Oriental","coordenada_x":"-74.802592","coordenada_y":"10.900938","nombre_ruta":"A3-41 Villa Karla","secuencia_parada":"23"},"geometry":{"type":"Point","coordinates":[-74.802592,10.900938]}},{"type":"Feature","properties":{"nombre_parada":"Calle 65 con Carrera 11C Terranova 2da Etapa","coordenada_x":"-74.801957","coordenada_y":"10.904042","nombre_ruta":"A3-41 Villa Karla","secuencia_parada":"24"},"geometry":{"type":"Point","coordinates":[-74.801957,10.904042]}},{"type":"Feature","properties":{"nombre_parada":"Portal de Soledad","coordenada_x":"-74.800586","coordenada_y":"10.907377","nombre_ruta":"A3-41 Villa Karla","secuencia_parada":"25"},"geometry":{"type":"Point","coordinates":[-74.800586,10.907377]}},{"type":"Feature","properties":{"nombre_parada":"Portal de Soledad","coordenada_x":"-74.800303","coordenada_y":"10.907587","nombre_ruta":"A3-5 Ciudadela Metropolitana","secuencia_parada":"1"},"geometry":{"type":"Point","coordinates":[-74.800303,10.907587]}},{"type":"Feature","properties":{"nombre_parada":"Carrera 14 con Calle 62 Soledad","coordenada_x":"-74.798492","coordenada_y":"10.909228","nombre_ruta":"A3-5 Ciudadela Metropolitana","secuencia_parada":"2"},"geometry":{"type":"Point","coordinates":[-74.798492,10.909228]}},{"type":"Feature","properties":{"nombre_parada":"Carrera 14 con Calle 59 Ent. Nuevo Milenio Soledad","coordenada_x":"-74.795947","coordenada_y":"10.908877","nombre_ruta":"A3-5 Ciudadela Metropolitana","secuencia_parada":"3"},"geometry":{"type":"Point","coordinates":[-74.795947,10.908877]}},{"type":"Feature","properties":{"nombre_parada":"Terminal de Transportes","coordenada_x":"-74.794045","coordenada_y":"10.908944","nombre_ruta":"A3-5 Ciudadela Metropolitana","secuencia_parada":"4"},"geometry":{"type":"Point","coordinates":[-74.794045,10.908944]}},{"type":"Feature","properties":{"nombre_parada":"Calle 54 con Carrera 14 El Percal Lado Occidental","coordenada_x":"-74.791893","coordenada_y":"10.906455","nombre_ruta":"A3-5 Ciudadela Metropolitana","secuencia_parada":"5"},"geometry":{"type":"Point","coordinates":[-74.791893,10.906455]}},{"type":"Feature","properties":{"nombre_parada":"Calle 54 Con Carrera 11B Lado Occidental Soledad","coordenada_x":"-74.791623","coordenada_y":"10.905077","nombre_ruta":"A3-5 Ciudadela Metropolitana","secuencia_parada":"6"},"geometry":{"type":"Point","coordinates":[-74.791623,10.905077]}},{"type":"Feature","properties":{"nombre_parada":"Calle 52 con Carrera 10C1 Siete Bocas","coordenada_x":"-74.78935","coordenada_y":"10.904732","nombre_ruta":"A3-5 Ciudadela Metropolitana","secuencia_parada":"7"},"geometry":{"type":"Point","coordinates":[-74.78935,10.904732]}},{"type":"Feature","properties":{"nombre_parada":"Carrera 8 con Callle 53A H. Materno Infantil Norte","coordenada_x":"-74.789625","coordenada_y":"10.90196","nombre_ruta":"A3-5 Ciudadela Metropolitana","secuencia_parada":"8"},"geometry":{"type":"Point","coordinates":[-74.789625,10.90196]}},{"type":"Feature","properties":{"nombre_parada":"Calle 54 con Carrera 8B Jesus Maestro Oriente","coordenada_x":"-74.79088","coordenada_y":"10.902397","nombre_ruta":"A3-5 Ciudadela Metropolitana","secuencia_parada":"9"},"geometry":{"type":"Point","coordinates":[-74.79088,10.902397]}},{"type":"Feature","properties":{"nombre_parada":"Calle 54 No. 11-18 Soledad","coordenada_x":"-74.791417","coordenada_y":"10.904798","nombre_ruta":"A3-5 Ciudadela Metropolitana","secuencia_parada":"10"},"geometry":{"type":"Point","coordinates":[-74.791417,10.904798]}},{"type":"Feature","properties":{"nombre_parada":"Calle 54 con Carrera 14 El Percal Lado Oriental","coordenada_x":"-74.791828","coordenada_y":"10.906856","nombre_ruta":"A3-5 Ciudadela Metropolitana","secuencia_parada":"11"},"geometry":{"type":"Point","coordinates":[-74.791828,10.906856]}},{"type":"Feature","properties":{"nombre_parada":"Calle 54 No. 14-3-110 Compraventa Express Soledad","coordenada_x":"-74.792017","coordenada_y":"10.910017","nombre_ruta":"A3-5 Ciudadela Metropolitana","secuencia_parada":"12"},"geometry":{"type":"Point","coordinates":[-74.792017,10.910017]}},{"type":"Feature","properties":{"nombre_parada":"Carrera 15 con Calle 59 Barrio Pta De Oro Soledad","coordenada_x":"-74.79516","coordenada_y":"10.910698","nombre_ruta":"A3-5 Ciudadela Metropolitana","secuencia_parada":"13"},"geometry":{"type":"Point","coordinates":[-74.79516,10.910698]}},{"type":"Feature","properties":{"nombre_parada":"Carrera 15 con Calle 57 Villa Linda Soledad","coordenada_x":"-74.797862","coordenada_y":"10.911055","nombre_ruta":"A3-5 Ciudadela Metropolitana","secuencia_parada":"14"},"geometry":{"type":"Point","coordinates":[-74.797862,10.911055]}},{"type":"Feature","properties":{"nombre_parada":"Portal de Soledad","coordenada_x":"-74.800303","coordenada_y":"10.907587","nombre_ruta":"A3-5 Ciudadela Metropolitana","secuencia_parada":"15"},"geometry":{"type":"Point","coordinates":[-74.800303,10.907587]}},{"type":"Feature","properties":{"nombre_parada":"Carrera 23B con Calle 63","coordenada_x":"-74.79951","coordenada_y":"10.921138","nombre_ruta":"A5-1 Los Robles / Los Almendros","secuencia_parada":"1"},"geometry":{"type":"Point","coordinates":[-74.79951,10.921138]}},{"type":"Feature","properties":{"nombre_parada":"Carrera 23B con Calle 67B Esq Soledad","coordenada_x":"-74.801988","coordenada_y":"10.92109","nombre_ruta":"A5-1 Los Robles / Los Almendros","secuencia_parada":"2"},"geometry":{"type":"Point","coordinates":[-74.801988,10.92109]}},{"type":"Feature","properties":{"nombre_parada":"Carrera 18 Sur No. 46C-04 Baq / Cra24 Cl69A Sol","coordenada_x":"-74.803522","coordenada_y":"10.921888","nombre_ruta":"A5-1 Los Robles / Los Almendros","secuencia_parada":"3"},"geometry":{"type":"Point","coordinates":[-74.803522,10.921888]}},{"type":"Feature","properties":{"nombre_parada":"Carrera 18 Sur con Calle 46H Baq / Cra24 Cl72 Sol","coordenada_x":"-74.804978","coordenada_y":"10.922383","nombre_ruta":"A5-1 Los Robles / Los Almendros","secuencia_parada":"4"},"geometry":{"type":"Point","coordinates":[-74.804978,10.922383]}},{"type":"Feature","properties":{"nombre_parada":"Carrera 18 Sur con Calle 47E Baq / Cra24 Cl74 Sol","coordenada_x":"-74.806707","coordenada_y":"10.92194","nombre_ruta":"A5-1 Los Robles / Los Almendros","secuencia_parada":"5"},"geometry":{"type":"Point","coordinates":[-74.806707,10.92194]}},{"type":"Feature","properties":{"nombre_parada":"Calle 74 con Carrera 23A Lado Occidente Soledad","coordenada_x":"-74.806863","coordenada_y":"10.920968","nombre_ruta":"A5-1 Los Robles / Los Almendros","secuencia_parada":"6"},"geometry":{"type":"Point","coordinates":[-74.806863,10.920968]}},{"type":"Feature","properties":{"nombre_parada":"Carrera 23A con Calle 75B Esq Lado Norte Soledad","coordenada_x":"-74.808545","coordenada_y":"10.920595","nombre_ruta":"A5-1 Los Robles / Los Almendros","secuencia_parada":"7"},"geometry":{"type":"Point","coordinates":[-74.808545,10.920595]}},{"type":"Feature","properties":{"nombre_parada":"Carrera 23A No. 76B-14 Lado Norte Soledad","coordenada_x":"-74.810165","coordenada_y":"10.920482","nombre_ruta":"A5-1 Los Robles / Los Almendros","secuencia_parada":"8"},"geometry":{"type":"Point","coordinates":[-74.810165,10.920482]}},{"type":"Feature","properties":{"nombre_parada":"Calle 77 con Carrera 23D Lado Oriente Soledad","coordenada_x":"-74.81162","coordenada_y":"10.92112","nombre_ruta":"A5-1 Los Robles / Los Almendros","secuencia_parada":"9"},"geometry":{"type":"Point","coordinates":[-74.81162,10.92112]}},{"type":"Feature","properties":{"nombre_parada":"Calle 79 No. 23B-03 Soledad","coordenada_x":"-74.812565","coordenada_y":"10.920608","nombre_ruta":"A5-1 Los Robles / Los Almendros","secuencia_parada":"10"},"geometry":{"type":"Point","coordinates":[-74.812565,10.920608]}},{"type":"Feature","properties":{"nombre_parada":"Calle 79 No. 21B-15 Soledad","coordenada_x":"-74.81397","coordenada_y":"10.919267","nombre_ruta":"A5-1 Los Robles / Los Almendros","secuencia_parada":"11"},"geometry":{"type":"Point","coordinates":[-74.81397,10.919267]}},{"type":"Feature","properties":{"nombre_parada":"Calle 79 No. 19-15 Soledad","coordenada_x":"-74.815215","coordenada_y":"10.91808","nombre_ruta":"A5-1 Los Robles / Los Almendros","secuencia_parada":"12"},"geometry":{"type":"Point","coordinates":[-74.815215,10.91808]}},{"type":"Feature","properties":{"nombre_parada":"Carrera 18 No. 80C-12 Lado Norte Soledad","coordenada_x":"-74.817938","coordenada_y":"10.917393","nombre_ruta":"A5-1 Los Robles / Los Almendros","secuencia_parada":"13"},"geometry":{"type":"Point","coordinates":[-74.817938,10.917393]}},{"type":"Feature","properties":{"nombre_parada":"Calle 83 No. 17-65 Lado Occidente Soledad","coordenada_x":"-74.819767","coordenada_y":"10.917762","nombre_ruta":"A5-1 Los Robles / Los Almendros","secuencia_parada":"14"},"geometry":{"type":"Point","coordinates":[-74.819767,10.917762]}},{"type":"Feature","properties":{"nombre_parada":"Calle 83 No. 15-23 Lado Occidente Soledad","coordenada_x":"-74.820338","coordenada_y":"10.916053","nombre_ruta":"A5-1 Los Robles / Los Almendros","secuencia_parada":"15"},"geometry":{"type":"Point","coordinates":[-74.820338,10.916053]}},{"type":"Feature","properties":{"nombre_parada":"Carrera 12D con Calle 84 Esq Soledad","coordenada_x":"-74.822783","coordenada_y":"10.91442","nombre_ruta":"A5-1 Los Robles / Los Almendros","secuencia_parada":"16"},"geometry":{"type":"Point","coordinates":[-74.822783,10.91442]}},{"type":"Feature","properties":{"nombre_parada":"Calle 85 con Carrera 13 Esq Soledad","coordenada_x":"-74.822995","coordenada_y":"10.915288","nombre_ruta":"A5-1 Los Robles / Los Almendros","secuencia_parada":"17"},"geometry":{"type":"Point","coordinates":[-74.822995,10.915288]}},{"type":"Feature","properties":{"nombre_parada":"Calle 84 con Carrera 14A Soledad","coordenada_x":"-74.822024","coordenada_y":"10.916137","nombre_ruta":"A5-1 Los Robles / Los Almendros","secuencia_parada":"18"},"geometry":{"type":"Point","coordinates":[-74.822024,10.916137]}},{"type":"Feature","properties":{"nombre_parada":"Carrera 16 con Calle 83A Esq Soledad","coordenada_x":"-74.820565","coordenada_y":"10.916793","nombre_ruta":"A5-1 Los Robles / Los Almendros","secuencia_parada":"19"},"geometry":{"type":"Point","coordinates":[-74.820565,10.916793]}},{"type":"Feature","properties":{"nombre_parada":"Calle 83 No. 17-62 Lado Oriente Soledad","coordenada_x":"-74.819723","coordenada_y":"10.917722","nombre_ruta":"A5-1 Los Robles / Los Almendros","secuencia_parada":"20"},"geometry":{"type":"Point","coordinates":[-74.819723,10.917722]}},{"type":"Feature","properties":{"nombre_parada":"Carrera 18 No. 81-29 Lado Sur Soledad","coordenada_x":"-74.818362","coordenada_y":"10.917537","nombre_ruta":"A5-1 Los Robles / Los Almendros","secuencia_parada":"21"},"geometry":{"type":"Point","coordinates":[-74.818362,10.917537]}},{"type":"Feature","properties":{"nombre_parada":"Calle 81 No. 18C-46 Soledad","coordenada_x":"-74.817343","coordenada_y":"10.918798","nombre_ruta":"A5-1 Los Robles / Los Almendros","secuencia_parada":"22"},"geometry":{"type":"Point","coordinates":[-74.817343,10.918798]}},{"type":"Feature","properties":{"nombre_parada":"Calle 81 No. 19A-22 Soledad","coordenada_x":"-74.816382","coordenada_y":"10.919723","nombre_ruta":"A5-1 Los Robles / Los Almendros","secuencia_parada":"23"},"geometry":{"type":"Point","coordinates":[-74.816382,10.919723]}},{"type":"Feature","properties":{"nombre_parada":"Calle 81 No. 21C-26 Soledad","coordenada_x":"-74.815188","coordenada_y":"10.920842","nombre_ruta":"A5-1 Los Robles / Los Almendros","secuencia_parada":"24"},"geometry":{"type":"Point","coordinates":[-74.815188,10.920842]}},{"type":"Feature","properties":{"nombre_parada":"Carrera 22B No. 79-15 Soledad","coordenada_x":"-74.813387","coordenada_y":"10.92014","nombre_ruta":"A5-1 Los Robles / Los Almendros","secuencia_parada":"25"},"geometry":{"type":"Point","coordinates":[-74.813387,10.92014]}},{"type":"Feature","properties":{"nombre_parada":"Calle 77 No. 23A-07 Lado Occidente Soledad","coordenada_x":"-74.81167","coordenada_y":"10.920568","nombre_ruta":"A5-1 Los Robles / Los Almendros","secuencia_parada":"26"},"geometry":{"type":"Point","coordinates":[-74.81167,10.920568]}},{"type":"Feature","properties":{"nombre_parada":"Carrera 23A No. 76-03 Lado Sur Soledad","coordenada_x":"-74.810078","coordenada_y":"10.920475","nombre_ruta":"A5-1 Los Robles / Los Almendros","secuencia_parada":"27"},"geometry":{"type":"Point","coordinates":[-74.810078,10.920475]}},{"type":"Feature","properties":{"nombre_parada":"Carrera 23A No. 74C-11 Lado Sur Soledad","coordenada_x":"-74.807818","coordenada_y":"10.920617","nombre_ruta":"A5-1 Los Robles / Los Almendros","secuencia_parada":"28"},"geometry":{"type":"Point","coordinates":[-74.807818,10.920617]}},{"type":"Feature","properties":{"nombre_parada":"Calle 74 con Carrera 23D Lado Oriente","coordenada_x":"-74.80691","coordenada_y":"10.9218","nombre_ruta":"A5-1 Los Robles / Los Almendros","secuencia_parada":"29"},"geometry":{"type":"Point","coordinates":[-74.80691,10.9218]}},{"type":"Feature","properties":{"nombre_parada":"Carrera 15 Sur No. 47C - 39","coordenada_x":"-74.806583","coordenada_y":"10.922777","nombre_ruta":"A5-1 Los Robles / Los Almendros","secuencia_parada":"30"},"geometry":{"type":"Point","coordinates":[-74.806583,10.922777]}},{"type":"Feature","properties":{"nombre_parada":"Carrera 15 Sur con Calle 46H","coordenada_x":"-74.804888","coordenada_y":"10.922848","nombre_ruta":"A5-1 Los Robles / Los Almendros","secuencia_parada":"31"},"geometry":{"type":"Point","coordinates":[-74.804888,10.922848]}},{"type":"Feature","properties":{"nombre_parada":"Av. Circunvalar con Calle 45H Puente Peat. Velodro","coordenada_x":"-74.801603","coordenada_y":"10.923168","nombre_ruta":"A5-1 Los Robles / Los Almendros","secuencia_parada":"32"},"geometry":{"type":"Point","coordinates":[-74.801603,10.923168]}},{"type":"Feature","properties":{"nombre_parada":"Carrera 23B con Calle 63","coordenada_x":"-74.79951","coordenada_y":"10.921138","nombre_ruta":"A5-1 Los Robles / Los Almendros","secuencia_parada":"33"},"geometry":{"type":"Point","coordinates":[-74.79951,10.921138]}},{"type":"Feature","properties":{"nombre_parada":"Carrera 16 Con Calle 64 Esq Pacho Galan Sur","coordenada_x":"-74.799829","coordenada_y":"10.914618","nombre_ruta":"A5-2 Las Moras","secuencia_parada":"1"},"geometry":{"type":"Point","coordinates":[-74.799829,10.914618]}},{"type":"Feature","properties":{"nombre_parada":"Carrera 16 con Calle 68 Esq Soledad","coordenada_x":"-74.801387","coordenada_y":"10.914585","nombre_ruta":"A5-2 Las Moras","secuencia_parada":"2"},"geometry":{"type":"Point","coordinates":[-74.801387,10.914585]}},{"type":"Feature","properties":{"nombre_parada":"Carrera 15 con Calle 69 Centro Salud Adela de Char","coordenada_x":"-74.803263","coordenada_y":"10.913761","nombre_ruta":"A5-2 Las Moras","secuencia_parada":"3"},"geometry":{"type":"Point","coordinates":[-74.803263,10.913761]}},{"type":"Feature","properties":{"nombre_parada":"Carrera 16 No. 73-26 Soledad","coordenada_x":"-74.805789","coordenada_y":"10.914402","nombre_ruta":"A5-2 Las Moras","secuencia_parada":"4"},"geometry":{"type":"Point","coordinates":[-74.805789,10.914402]}},{"type":"Feature","properties":{"nombre_parada":"Calle 74A con Carrera 14 Soledad","coordenada_x":"-74.807091","coordenada_y":"10.913403","nombre_ruta":"A5-2 Las Moras","secuencia_parada":"5"},"geometry":{"type":"Point","coordinates":[-74.807091,10.913403]}},{"type":"Feature","properties":{"nombre_parada":"Calle 76 No. 16-22 Soledad","coordenada_x":"-74.808772","coordenada_y":"10.914396","nombre_ruta":"A5-2 Las Moras","secuencia_parada":"6"},"geometry":{"type":"Point","coordinates":[-74.808772,10.914396]}},{"type":"Feature","properties":{"nombre_parada":"Calle 76 con Carrera 18C Esq Soledad","coordenada_x":"-74.808981","coordenada_y":"10.916982","nombre_ruta":"A5-2 Las Moras","secuencia_parada":"7"},"geometry":{"type":"Point","coordinates":[-74.808981,10.916982]}},{"type":"Feature","properties":{"nombre_parada":"Carrera 19 con Calle 74A Esq Soledad","coordenada_x":"-74.807207","coordenada_y":"10.917364","nombre_ruta":"A5-2 Las Moras","secuencia_parada":"8"},"geometry":{"type":"Point","coordinates":[-74.807207,10.917364]}},{"type":"Feature","properties":{"nombre_parada":"Carrera 19 con Calle 72B Esq Soledad","coordenada_x":"-74.805663","coordenada_y":"10.917501","nombre_ruta":"A5-2 Las Moras","secuencia_parada":"9"},"geometry":{"type":"Point","coordinates":[-74.805663,10.917501]}},{"type":"Feature","properties":{"nombre_parada":"Carrera 18 con Calle 70 Esq Soledad","coordenada_x":"-74.804415","coordenada_y":"10.916551","nombre_ruta":"A5-2 Las Moras","secuencia_parada":"10"},"geometry":{"type":"Point","coordinates":[-74.804415,10.916551]}},{"type":"Feature","properties":{"nombre_parada":"Carrera 18 No. 68C-11 Soledad","coordenada_x":"-74.802606","coordenada_y":"10.916902","nombre_ruta":"A5-2 Las Moras","secuencia_parada":"11"},"geometry":{"type":"Point","coordinates":[-74.802606,10.916902]}},{"type":"Feature","properties":{"nombre_parada":"Carrera 18 No. 65-15 Soledad","coordenada_x":"-74.800371","coordenada_y":"10.917038","nombre_ruta":"A5-2 Las Moras","secuencia_parada":"12"},"geometry":{"type":"Point","coordinates":[-74.800371,10.917038]}},{"type":"Feature","properties":{"nombre_parada":"Carrera 16 Con Calle 64 Esq Pacho Galan Sur","coordenada_x":"-74.799829","coordenada_y":"10.914618","nombre_ruta":"A5-2 Las Moras","secuencia_parada":"13"},"geometry":{"type":"Point","coordinates":[-74.799829,10.914618]}},{"type":"Feature","properties":{"nombre_parada":"Portal de Soledad","coordenada_x":"-74.800399","coordenada_y":"10.907649","nombre_ruta":"A5-3 Don Bosco","secuencia_parada":"1"},"geometry":{"type":"Point","coordinates":[-74.800399,10.907649]}},{"type":"Feature","properties":{"nombre_parada":"Centro Comercial Nuestro Atlantico","coordenada_x":"-74.801316","coordenada_y":"10.905385","nombre_ruta":"A5-3 Don Bosco","secuencia_parada":"2"},"geometry":{"type":"Point","coordinates":[-74.801316,10.905385]}},{"type":"Feature","properties":{"nombre_parada":"Calle 65 con Carrera 12 Ciudad Transmetro Lado Occ","coordenada_x":"-74.802113","coordenada_y":"10.904125","nombre_ruta":"A5-3 Don Bosco","secuencia_parada":"3"},"geometry":{"type":"Point","coordinates":[-74.802113,10.904125]}},{"type":"Feature","properties":{"nombre_parada":"Calle 65 con Carrera 8 Los Loteros Lado Occidental","coordenada_x":"-74.802702","coordenada_y":"10.901335","nombre_ruta":"A5-3 Don Bosco","secuencia_parada":"4"},"geometry":{"type":"Point","coordinates":[-74.802702,10.901335]}},{"type":"Feature","properties":{"nombre_parada":"Calle 65 Ciudad Camelot Lado Occidental","coordenada_x":"-74.803115","coordenada_y":"10.899415","nombre_ruta":"A5-3 Don Bosco","secuencia_parada":"5"},"geometry":{"type":"Point","coordinates":[-74.803115,10.899415]}},{"type":"Feature","properties":{"nombre_parada":"Calle 65 La Candelaria Lado Occidental","coordenada_x":"-74.803785","coordenada_y":"10.895393","nombre_ruta":"A5-3 Don Bosco","secuencia_parada":"6"},"geometry":{"type":"Point","coordinates":[-74.803785,10.895393]}},{"type":"Feature","properties":{"nombre_parada":"Calle 65 con Carrera 5 La Central Lado Occidental","coordenada_x":"-74.80419","coordenada_y":"10.891485","nombre_ruta":"A5-3 Don Bosco","secuencia_parada":"7"},"geometry":{"type":"Point","coordinates":[-74.80419,10.891485]}},{"type":"Feature","properties":{"nombre_parada":"Carrera 5 con Calle 66C Lado Norte Soledad","coordenada_x":"-74.806688","coordenada_y":"10.891468","nombre_ruta":"A5-3 Don Bosco","secuencia_parada":"8"},"geometry":{"type":"Point","coordinates":[-74.806688,10.891468]}},{"type":"Feature","properties":{"nombre_parada":"Carrera 5 con Calle 68B Esq Lado Norte Soledad","coordenada_x":"-74.808489","coordenada_y":"10.891413","nombre_ruta":"A5-3 Don Bosco","secuencia_parada":"9"},"geometry":{"type":"Point","coordinates":[-74.808489,10.891413]}},{"type":"Feature","properties":{"nombre_parada":"Calle 69 con Carrera 4 Soledad","coordenada_x":"-74.808669","coordenada_y":"10.889523","nombre_ruta":"A5-3 Don Bosco","secuencia_parada":"10"},"geometry":{"type":"Point","coordinates":[-74.808669,10.889523]}},{"type":"Feature","properties":{"nombre_parada":"Carrera 4 con Calle 71A Lado Norte Soledad","coordenada_x":"-74.810643","coordenada_y":"10.88937","nombre_ruta":"A5-3 Don Bosco","secuencia_parada":"11"},"geometry":{"type":"Point","coordinates":[-74.810643,10.88937]}},{"type":"Feature","properties":{"nombre_parada":"Diagonal 71 con Transversal 1A4 Lado Occidente","coordenada_x":"-74.812008","coordenada_y":"10.888093","nombre_ruta":"A5-3 Don Bosco","secuencia_parada":"12"},"geometry":{"type":"Point","coordinates":[-74.812008,10.888093]}},{"type":"Feature","properties":{"nombre_parada":"Diagonal 71 con Transversal 1BSur Lado Occidente","coordenada_x":"-74.81279","coordenada_y":"10.886892","nombre_ruta":"A5-3 Don Bosco","secuencia_parada":"13"},"geometry":{"type":"Point","coordinates":[-74.81279,10.886892]}},{"type":"Feature","properties":{"nombre_parada":"Transversal 1C sur con Diagonal 72 Cancha Don Bosc","coordenada_x":"-74.813893","coordenada_y":"10.887139","nombre_ruta":"A5-3 Don Bosco","secuencia_parada":"14"},"geometry":{"type":"Point","coordinates":[-74.813893,10.887139]}},{"type":"Feature","properties":{"nombre_parada":"Transversal 2 sur con Diagonal 72 Esq (Panaderia)","coordenada_x":"-74.814633","coordenada_y":"10.886447","nombre_ruta":"A5-3 Don Bosco","secuencia_parada":"15"},"geometry":{"type":"Point","coordinates":[-74.814633,10.886447]}},{"type":"Feature","properties":{"nombre_parada":"Diagonal 71 con Transversal 1BSur Lado Oriente","coordenada_x":"-74.812773","coordenada_y":"10.88687","nombre_ruta":"A5-3 Don Bosco","secuencia_parada":"16"},"geometry":{"type":"Point","coordinates":[-74.812773,10.88687]}},{"type":"Feature","properties":{"nombre_parada":"Diagonal 71 con Transversal 1A4 Lado Oriente","coordenada_x":"-74.81185","coordenada_y":"10.888243","nombre_ruta":"A5-3 Don Bosco","secuencia_parada":"17"},"geometry":{"type":"Point","coordinates":[-74.81185,10.888243]}},{"type":"Feature","properties":{"nombre_parada":"Carrera 4 con Calle 71 Lado Sur Soledad","coordenada_x":"-74.810478","coordenada_y":"10.889353","nombre_ruta":"A5-3 Don Bosco","secuencia_parada":"18"},"geometry":{"type":"Point","coordinates":[-74.810478,10.889353]}},{"type":"Feature","properties":{"nombre_parada":"Carrera 4 con Calle 69A Lado Sur Soledad","coordenada_x":"-74.808878","coordenada_y":"10.889343","nombre_ruta":"A5-3 Don Bosco","secuencia_parada":"19"},"geometry":{"type":"Point","coordinates":[-74.808878,10.889343]}},{"type":"Feature","properties":{"nombre_parada":"Carrera 5 con Calle 69 Esq Lado Sur Soledad","coordenada_x":"-74.808445","coordenada_y":"10.891352","nombre_ruta":"A5-3 Don Bosco","secuencia_parada":"20"},"geometry":{"type":"Point","coordinates":[-74.808445,10.891352]}},{"type":"Feature","properties":{"nombre_parada":"Carrera 5 con Calle 66A Lado Sur Soledad","coordenada_x":"-74.806367","coordenada_y":"10.891378","nombre_ruta":"A5-3 Don Bosco","secuencia_parada":"21"},"geometry":{"type":"Point","coordinates":[-74.806367,10.891378]}},{"type":"Feature","properties":{"nombre_parada":"Calle 65 Gran Central de Abastos del Caribe","coordenada_x":"-74.803852","coordenada_y":"10.887832","nombre_ruta":"A5-3 Don Bosco","secuencia_parada":"22"},"geometry":{"type":"Point","coordinates":[-74.803852,10.887832]}},{"type":"Feature","properties":{"nombre_parada":"Calle 65 con Diagonal 56 EDS La Inmaculada Soledad","coordenada_x":"-74.803507","coordenada_y":"10.889405","nombre_ruta":"A5-3 Don Bosco","secuencia_parada":"23"},"geometry":{"type":"Point","coordinates":[-74.803507,10.889405]}},{"type":"Feature","properties":{"nombre_parada":"Calle 65 Villa Linda Av. Murillo Soledad","coordenada_x":"-74.804013","coordenada_y":"10.891925","nombre_ruta":"A5-3 Don Bosco","secuencia_parada":"24"},"geometry":{"type":"Point","coordinates":[-74.804013,10.891925]}},{"type":"Feature","properties":{"nombre_parada":"Calle 65 La Candelaria Lado Oriental","coordenada_x":"-74.804009","coordenada_y":"10.893602","nombre_ruta":"A5-3 Don Bosco","secuencia_parada":"25"},"geometry":{"type":"Point","coordinates":[-74.804009,10.893602]}},{"type":"Feature","properties":{"nombre_parada":"Calle 65 Villas del Portal 2 Lado Oriental","coordenada_x":"-74.803067","coordenada_y":"10.8988","nombre_ruta":"A5-3 Don Bosco","secuencia_parada":"26"},"geometry":{"type":"Point","coordinates":[-74.803067,10.8988]}},